#INSPVAA,64,0,89.5,UNKNOWN,0,1678.000,38010912,54e2,14307;0,1678.000000000,0.00000000000,0.00000000000,0.0000,0.0000,0.0000,0.0000,0.000000000,0.000000000,0.000000000,INS_INACTIVE*cd294457
#INSPVAA,64,0,89.5,UNKNOWN,0,1678.050,38010912,54e2,14307;0,1678.050000000,0.00000000000,0.00000000000,0.0000,0.0000,0.0000,0.0000,0.000000000,0.000000000,0.000000000,WAITING_INITIALPOS*2e96122d
#INSPVAA,64,0,90.0,UNKNOWN,0,1678.100,38010912,54e2,14307;0,1678.100000000,0.00000000000,0.00000000000,0.0000,0.0000,0.0000,0.0000,0.000000000,0.000000000,0.000000000,WAITING_INITIALPOS*de60ddf2
#INSPVAA,64,0,90.0,UNKNOWN,0,1678.150,38010912,54e2,14307;0,1678.150000000,0.00000000000,0.00000000000,0.0000,0.0000,0.0000,0.0000,0.000000000,0.000000000,0.000000000,WAITING_INITIALPOS*dc071267
#INSPVAA,64,0,90.0,UNKNOWN,0,1678.200,38010912,54e2,14307;0,1678.200000000,0.00000000000,0.00000000000,0.0000,0.0000,0.0000,0.0000,0.000000000,0.000000000,0.000000000,WAITING_INITIALPOS*a0e70473
#INSPVAA,64,0,90.0,UNKNOWN,0,1678.250,38010912,54e2,14307;0,1678.250000000,0.00000000000,0.00000000000,0.0000,0.0000,0.0000,0.0000,0.000000000,0.000000000,0.000000000,WAITING_INITIALPOS*ec9efa49
#INSPVAA,64,0,90.0,UNKNOWN,0,1678.300,38010912,54e2,14307;0,1678.300000000,0.00000000000,0.00000000000,0.0000,0.0000,0.0000,0.0000,0.000000000,0.000000000,0.000000000,WAITING_INITIALPOS*17571e24
#INSPVAA,64,0,90.0,UNKNOWN,0,1678.350,38010912,54e2,14307;0,1678.350000000,0.00000000000,0.00000000000,0.0000,0.0000,0.0000,0.0000,0.000000000,0.000000000,0.000000000,WAITING_INITIALPOS*f72a60aa
#INSPVAA,64,0,90.0,UNKNOWN,0,1678.400,38010912,54e2,14307;0,1678.400000000,0.00000000000,0.00000000000,0.0000,0.0000,0.0000,0.0000,0.000000000,0.000000000,0.000000000,WAITING_INITIALPOS*d667fbb4
#INSPVAA,64,0,90.0,UNKNOWN,0,1678.450,38010912,54e2,14307;0,1678.450000000,0.00000000000,0.00000000000,0.0000,0.0000,0.0000,0.0000,0.000000000,0.000000000,0.000000000,WAITING_INITIALPOS*bd95c9ff
#INSPVAA,64,0,90.0,UNKNOWN,0,1678.500,38010912,54e2,14307;0,1678.500000000,0.00000000000,0.00000000000,0.0000,0.0000,0.0000,0.0000,0.000000000,0.000000000,0.000000000,WAITING_INITIALPOS*6b10c552
#INSPVAA,64,0,90.0,UNKNOWN,0,1678.550,38010912,54e2,14307;0,1678.550000000,0.00000000000,0.00000000000,0.0000,0.0000,0.0000,0.0000,0.000000000,0.000000000,0.000000000,WAITING_INITIALPOS*9dd73d0a
#INSPVAA,64,0,90.0,UNKNOWN,0,1678.600,38010912,54e2,14307;0,1678.600000000,0.00000000000,0.00000000000,0.0000,0.0000,0.0000,0.0000,0.000000000,0.000000000,0.000000000,WAITING_INITIALPOS*38756994
#INSPVAA,64,0,90.0,UNKNOWN,0,1678.650,38010912,54e2,14307;0,1678.650000000,0.00000000000,0.00000000000,0.0000,0.0000,0.0000,0.0000,0.000000000,0.000000000,0.000000000,WAITING_INITIALPOS*828384f9
#INSPVAA,64,0,90.0,UNKNOWN,0,1678.700,38010912,54e2,14307;0,1678.700000000,0.00000000000,0.00000000000,0.0000,0.0000,0.0000,0.0000,0.000000000,0.000000000,0.000000000,WAITING_INITIALPOS*5cee887f
#INSPVAA,64,0,90.0,UNKNOWN,0,1678.750,38010912,54e2,14307;0,1678.750000000,0.00000000000,0.00000000000,0.0000,0.0000,0.0000,0.0000,0.000000000,0.000000000,0.000000000,WAITING_INITIALPOS*78e797ed
#INSPVAA,64,0,90.0,UNKNOWN,0,1678.800,38010912,54e2,14307;0,1678.800000000,0.00000000000,0.00000000000,0.0000,0.0000,0.0000,0.0000,0.000000000,0.000000000,0.000000000,WAITING_INITIALPOS*c57ada96
#INSPVAA,64,0,90.0,UNKNOWN,0,1678.850,38010912,54e2,14307;0,1678.850000000,0.00000000000,0.00000000000,0.0000,0.0000,0.0000,0.0000,0.000000000,0.000000000,0.000000000,WAITING_INITIALPOS*4671af92
#INSPVAA,64,0,90.0,UNKNOWN,0,1678.900,38010912,54e2,14307;0,1678.900000000,0.00000000000,0.00000000000,0.0000,0.0000,0.0000,0.0000,0.000000000,0.000000000,0.000000000,WAITING_INITIALPOS*f1895eca
#INSPVAA,64,0,90.0,UNKNOWN,0,1678.950,38010912,54e2,14307;0,1678.950000000,0.00000000000,0.00000000000,0.0000,0.0000,0.0000,0.0000,0.000000000,0.000000000,0.000000000,WAITING_INITIALPOS*22ea4e79
#INSPVAA,64,0,90.0,UNKNOWN,0,1679.000,38010912,54e2,14307;0,1679.000000000,0.00000000000,0.00000000000,0.0000,0.0000,0.0000,0.0000,0.000000000,0.000000000,0.000000000,WAITING_INITIALPOS*72974013
#INSPVAA,64,0,85.5,UNKNOWN,0,1679.050,38010912,54e2,14307;0,1679.050000000,0.00000000000,0.00000000000,0.0000,0.0000,0.0000,0.0000,0.000000000,0.000000000,0.000000000,WAITING_INITIALPOS*650212d8
#INSPVAA,64,0,85.5,UNKNOWN,0,1679.100,38010912,54e2,14307;0,1679.100000000,0.00000000000,0.00000000000,0.0000,0.0000,0.0000,0.0000,0.000000000,0.000000000,0.000000000,WAITING_INITIALPOS*edfaddf7
#INSPVAA,64,0,85.5,UNKNOWN,0,1679.150,38010912,54e2,14307;0,1679.150000000,0.00000000000,0.00000000000,0.0000,0.0000,0.0000,0.0000,0.000000000,0.000000000,0.000000000,WAITING_INITIALPOS*604a9341
#INSPVAA,64,0,85.5,UNKNOWN,0,1679.200,38010912,54e2,14307;0,1679.200000000,0.00000000000,0.00000000000,0.0000,0.0000,0.0000,0.0000,0.000000000,0.000000000,0.000000000,WAITING_INITIALPOS*9003d779
#INSPVAA,64,0,85.5,UNKNOWN,0,1679.250,38010912,54e2,14307;0,1679.250000000,0.00000000000,0.00000000000,0.0000,0.0000,0.0000,0.0000,0.000000000,0.000000000,0.000000000,WAITING_INITIALPOS*b40ac8eb
#INSPVAA,64,0,85.5,UNKNOWN,0,1679.300,38010912,54e2,14307;0,1679.300000000,0.00000000000,0.00000000000,0.0000,0.0000,0.0000,0.0000,0.000000000,0.000000000,0.000000000,WAITING_INITIALPOS*27b3cd2e
#INSPVAA,64,0,85.5,UNKNOWN,0,1679.350,38010912,54e2,14307;0,1679.350000000,0.00000000000,0.00000000000,0.0000,0.0000,0.0000,0.0000,0.000000000,0.000000000,0.000000000,WAITING_INITIALPOS*a2451e34
#INSPVAA,64,0,85.5,UNKNOWN,0,1679.400,38010912,54e2,14307;0,1679.400000000,0.00000000000,0.00000000000,0.0000,0.0000,0.0000,0.0000,0.000000000,0.000000000,0.000000000,WAITING_INITIALPOS*573d153d
#INSPVAA,64,0,85.5,UNKNOWN,0,1679.450,38010912,54e2,14307;0,1679.450000000,0.00000000000,0.00000000000,0.0000,0.0000,0.0000,0.0000,0.000000000,0.000000000,0.000000000,WAITING_INITIALPOS*ec2ee426
#INSPVAA,64,0,85.5,UNKNOWN,0,1679.500,38010912,54e2,14307;0,1679.500000000,0.00000000000,0.00000000000,0.0000,0.0000,0.0000,0.0000,0.000000000,0.000000000,0.000000000,WAITING_INITIALPOS*3aabe88b
#INSPVAA,64,0,85.5,UNKNOWN,0,1679.550,38010912,54e2,14307;0,1679.550000000,0.00000000000,0.00000000000,0.0000,0.0000,0.0000,0.0000,0.000000000,0.000000000,0.000000000,WAITING_INITIALPOS*1c8dd383
#INSPVAA,64,0,85.5,UNKNOWN,0,1679.600,38010912,54e2,14307;0,1679.600000000,0.00000000000,0.00000000000,0.0000,0.0000,0.0000,0.0000,0.000000000,0.000000000,0.000000000,WAITING_INITIALPOS*02c076ea
#INSPVAA,64,0,85.5,UNKNOWN,0,1679.650,38010912,54e2,14307;0,1679.650000000,0.00000000000,0.00000000000,0.0000,0.0000,0.0000,0.0000,0.000000000,0.000000000,0.000000000,WAITING_INITIALPOS*8f70385c
#INSPVAA,64,0,85.5,UNKNOWN,0,1679.700,38010912,54e2,14307;0,1679.700000000,0.00000000000,0.00000000000,0.0000,0.0000,0.0000,0.0000,0.000000000,0.000000000,0.000000000,WAITING_INITIALPOS*396dd572
#INSPVAA,64,0,85.5,UNKNOWN,0,1679.750,38010912,54e2,14307;0,1679.750000000,0.00000000000,0.00000000000,0.0000,0.0000,0.0000,0.0000,0.000000000,0.000000000,0.000000000,WAITING_INITIALPOS*75142b48
#INSPVAA,64,0,85.5,UNKNOWN,0,1679.800,38010912,54e2,14307;0,1679.800000000,0.00000000000,0.00000000000,0.0000,0.0000,0.0000,0.0000,0.000000000,0.000000000,0.000000000,WAITING_INITIALPOS*4420341f
#INSPVAA,64,0,85.5,UNKNOWN,0,1679.850,38010912,54e2,14307;0,1679.850000000,0.00000000000,0.00000000000,0.0000,0.0000,0.0000,0.0000,0.000000000,0.000000000,0.000000000,WAITING_INITIALPOS*7947c5fd
#INSPVAA,64,0,85.5,UNKNOWN,0,1679.900,38010912,54e2,14307;0,1679.900000000,0.00000000000,0.00000000000,0.0000,0.0000,0.0000,0.0000,0.000000000,0.000000000,0.000000000,WAITING_INITIALPOS*a0327313
#INSPVAA,64,0,85.5,UNKNOWN,0,1679.950,38010912,54e2,14307;0,1679.950000000,0.00000000000,0.00000000000,0.0000,0.0000,0.0000,0.0000,0.000000000,0.000000000,0.000000000,WAITING_INITIALPOS*735163a0
#INSPVAA,64,0,85.5,UNKNOWN,0,1680.000,38010912,54e2,14307;0,1680.000000000,0.00000000000,0.00000000000,0.0000,0.0000,0.0000,0.0000,0.000000000,0.000000000,0.000000000,WAITING_INITIALPOS*a95b695e
#INSPVAA,64,0,85.5,UNKNOWN,0,1680.050,38010912,54e2,14307;0,1680.050000000,0.00000000000,0.00000000000,0.0000,0.0000,0.0000,0.0000,0.000000000,0.000000000,0.000000000,WAITING_INITIALPOS*8f7d5256
#INSPVAA,64,0,87.5,UNKNOWN,0,1680.100,38010912,54e2,14307;0,1680.100000000,0.00000000000,0.00000000000,0.0000,0.0000,0.0000,0.0000,0.000000000,0.000000000,0.000000000,WAITING_INITIALPOS*8defbc35
#INSPVAA,64,0,87.5,UNKNOWN,0,1680.150,38010912,54e2,14307;0,1680.150000000,0.00000000000,0.00000000000,0.0000,0.0000,0.0000,0.0000,0.000000000,0.000000000,0.000000000,WAITING_INITIALPOS*682f132b
#INSPVAA,64,0,87.5,UNKNOWN,0,1680.200,38010912,54e2,14307;0,1680.200000000,0.00000000000,0.00000000000,0.0000,0.0000,0.0000,0.0000,0.000000000,0.000000000,0.000000000,WAITING_INITIALPOS*ac5e27c7
#INSPVAA,64,0,87.5,UNKNOWN,0,1680.250,38010912,54e2,14307;0,1680.250000000,0.00000000000,0.00000000000,0.0000,0.0000,0.0000,0.0000,0.000000000,0.000000000,0.000000000,WAITING_INITIALPOS*22047be4
#INSPVAA,64,0,87.5,UNKNOWN,0,1680.300,38010912,54e2,14307;0,1680.300000000,0.00000000000,0.00000000000,0.0000,0.0000,0.0000,0.0000,0.000000000,0.000000000,0.000000000,WAITING_INITIALPOS*cb0ffec0
#INSPVAA,64,0,87.5,UNKNOWN,0,1680.350,38010912,54e2,14307;0,1680.350000000,0.00000000000,0.00000000000,0.0000,0.0000,0.0000,0.0000,0.000000000,0.000000000,0.000000000,WAITING_INITIALPOS*9e18ee8a
#INSPVAA,64,0,87.5,UNKNOWN,0,1680.400,38010912,54e2,14307;0,1680.400000000,0.00000000000,0.00000000000,0.0000,0.0000,0.0000,0.0000,0.000000000,0.000000000,0.000000000,WAITING_INITIALPOS*624ffaf8
#INSPVAA,64,0,87.5,UNKNOWN,0,1680.450,38010912,54e2,14307;0,1680.450000000,0.00000000000,0.00000000000,0.0000,0.0000,0.0000,0.0000,0.000000000,0.000000000,0.000000000,WAITING_INITIALPOS*b12cea4b
#INSPVAA,64,0,87.5,UNKNOWN,0,1680.500,38010912,54e2,14307;0,1680.500000000,0.00000000000,0.00000000000,0.0000,0.0000,0.0000,0.0000,0.000000000,0.000000000,0.000000000,WAITING_INITIALPOS*a58a44ff
#INSPVAA,64,0,87.5,UNKNOWN,0,1680.550,38010912,54e2,14307;0,1680.550000000,0.00000000000,0.00000000000,0.0000,0.0000,0.0000,0.0000,0.000000000,0.000000000,0.000000000,WAITING_INITIALPOS*418fddee
#INSPVAA,64,0,87.5,UNKNOWN,0,1680.600,38010912,54e2,14307;0,1680.600000000,0.00000000000,0.00000000000,0.0000,0.0000,0.0000,0.0000,0.000000000,0.000000000,0.000000000,WAITING_INITIALPOS*038ae9fb
#INSPVAA,64,0,87.5,UNKNOWN,0,1680.650,38010912,54e2,14307;0,1680.650000000,0.00000000000,0.00000000000,0.0000,0.0000,0.0000,0.0000,0.000000000,0.000000000,0.000000000,WAITING_INITIALPOS*8e3aa74d
#INSPVAA,64,0,87.5,UNKNOWN,0,1680.700,38010912,54e2,14307;0,1680.700000000,0.00000000000,0.00000000000,0.0000,0.0000,0.0000,0.0000,0.000000000,0.000000000,0.000000000,WAITING_INITIALPOS*e8c68933
#INSPVAA,64,0,87.5,UNKNOWN,0,1680.750,38010912,54e2,14307;0,1680.750000000,0.00000000000,0.00000000000,0.0000,0.0000,0.0000,0.0000,0.000000000,0.000000000,0.000000000,WAITING_INITIALPOS*de0df7e8
#INSPVAA,64,0,87.5,UNKNOWN,0,1680.800,38010912,54e2,14307;0,1680.800000000,0.00000000000,0.00000000000,0.0000,0.0000,0.0000,0.0000,0.000000000,0.000000000,0.000000000,WAITING_INITIALPOS*19223a72
#INSPVAA,64,0,87.5,UNKNOWN,0,1680.850,38010912,54e2,14307;0,1680.850000000,0.00000000000,0.00000000000,0.0000,0.0000,0.0000,0.0000,0.000000000,0.000000000,0.000000000,WAITING_INITIALPOS*4c352a38
#INSPVAA,64,0,87.5,UNKNOWN,0,1680.900,38010912,54e2,14307;0,1680.900000000,0.00000000000,0.00000000000,0.0000,0.0000,0.0000,0.0000,0.000000000,0.000000000,0.000000000,WAITING_INITIALPOS*fd307d7e
#INSPVAA,64,0,87.5,UNKNOWN,0,1680.950,38010912,54e2,14307;0,1680.950000000,0.00000000000,0.00000000000,0.0000,0.0000,0.0000,0.0000,0.000000000,0.000000000,0.000000000,WAITING_INITIALPOS*96c24f35
#INSPVAA,64,0,87.5,UNKNOWN,0,1681.000,38010912,54e2,14307;0,1681.000000000,0.00000000000,0.00000000000,0.0000,0.0000,0.0000,0.0000,0.000000000,0.000000000,0.000000000,WAITING_INITIALPOS*d47d2016
#INSPVAA,64,0,87.5,UNKNOWN,0,1681.050,38010912,54e2,14307;0,1681.050000000,0.00000000000,0.00000000000,0.0000,0.0000,0.0000,0.0000,0.000000000,0.000000000,0.000000000,WAITING_INITIALPOS*580858af
#INSPVAA,64,0,88.0,UNKNOWN,0,1681.100,38010912,54e2,14307;0,1681.100000000,0.00000000000,0.00000000000,0.0000,0.0000,0.0000,0.0000,0.000000000,0.000000000,0.000000000,WAITING_INITIALPOS*e143fe43
#INSPVAA,64,0,88.0,UNKNOWN,0,1681.150,38010912,54e2,14307;0,1681.150000000,0.00000000000,0.00000000000,0.0000,0.0000,0.0000,0.0000,0.000000000,0.000000000,0.000000000,WAITING_INITIALPOS*5bb5132e
#INSPVAA,64,0,88.0,UNKNOWN,0,1681.200,38010912,54e2,14307;0,1681.200000000,0.00000000000,0.00000000000,0.0000,0.0000,0.0000,0.0000,0.000000000,0.000000000,0.000000000,WAITING_INITIALPOS*242bd635
#INSPVAA,64,0,88.0,UNKNOWN,0,1681.250,38010912,54e2,14307;0,1681.250000000,0.00000000000,0.00000000000,0.0000,0.0000,0.0000,0.0000,0.000000000,0.000000000,0.000000000,WAITING_INITIALPOS*12e0a8ee
#INSPVAA,64,0,88.0,UNKNOWN,0,1681.300,38010912,54e2,14307;0,1681.300000000,0.00000000000,0.00000000000,0.0000,0.0000,0.0000,0.0000,0.000000000,0.000000000,0.000000000,WAITING_INITIALPOS*939bcc62
#INSPVAA,64,0,88.0,UNKNOWN,0,1681.350,38010912,54e2,14307;0,1681.350000000,0.00000000000,0.00000000000,0.0000,0.0000,0.0000,0.0000,0.000000000,0.000000000,0.000000000,WAITING_INITIALPOS*aefc3d80
#INSPVAA,64,0,88.0,UNKNOWN,0,1681.400,38010912,54e2,14307;0,1681.400000000,0.00000000000,0.00000000000,0.0000,0.0000,0.0000,0.0000,0.000000000,0.000000000,0.000000000,WAITING_INITIALPOS*0318f4b2
#INSPVAA,64,0,88.0,UNKNOWN,0,1681.450,38010912,54e2,14307;0,1681.450000000,0.00000000000,0.00000000000,0.0000,0.0000,0.0000,0.0000,0.000000000,0.000000000,0.000000000,WAITING_INITIALPOS*cb8d7c79
#INSPVAA,64,0,88.0,UNKNOWN,0,1681.500,38010912,54e2,14307;0,1681.500000000,0.00000000000,0.00000000000,0.0000,0.0000,0.0000,0.0000,0.000000000,0.000000000,0.000000000,WAITING_INITIALPOS*0fca119d
#INSPVAA,64,0,88.0,UNKNOWN,0,1681.550,38010912,54e2,14307;0,1681.550000000,0.00000000000,0.00000000000,0.0000,0.0000,0.0000,0.0000,0.000000000,0.000000000,0.000000000,WAITING_INITIALPOS*ebcf888c
#INSPVAA,64,0,88.0,UNKNOWN,0,1681.600,38010912,54e2,14307;0,1681.600000000,0.00000000000,0.00000000000,0.0000,0.0000,0.0000,0.0000,0.000000000,0.000000000,0.000000000,WAITING_INITIALPOS*f5822de5
#INSPVAA,64,0,88.0,UNKNOWN,0,1681.650,38010912,54e2,14307;0,1681.650000000,0.00000000000,0.00000000000,0.0000,0.0000,0.0000,0.0000,0.000000000,0.000000000,0.000000000,WAITING_INITIALPOS*4f74c088
#INSPVAA,64,0,88.0,UNKNOWN,0,1681.700,38010912,54e2,14307;0,1681.700000000,0.00000000000,0.00000000000,0.0000,0.0000,0.0000,0.0000,0.000000000,0.000000000,0.000000000,WAITING_INITIALPOS*1ece4d2d
#INSPVAA,64,0,88.0,UNKNOWN,0,1681.750,38010912,54e2,14307;0,1681.750000000,0.00000000000,0.00000000000,0.0000,0.0000,0.0000,0.0000,0.000000000,0.000000000,0.000000000,WAITING_INITIALPOS*4075d25e
#INSPVAA,64,0,88.0,UNKNOWN,0,1681.800,38010912,54e2,14307;0,1681.800000000,0.00000000000,0.00000000000,0.0000,0.0000,0.0000,0.0000,0.000000000,0.000000000,0.000000000,WAITING_INITIALPOS*b3626f10
#INSPVAA,64,0,88.0,UNKNOWN,0,1681.850,38010912,54e2,14307;0,1681.850000000,0.00000000000,0.00000000000,0.0000,0.0000,0.0000,0.0000,0.000000000,0.000000000,0.000000000,WAITING_INITIALPOS*3694bc0a
#INSPVAA,64,0,88.0,UNKNOWN,0,1681.900,38010912,54e2,14307;0,1681.900000000,0.00000000000,0.00000000000,0.0000,0.0000,0.0000,0.0000,0.000000000,0.000000000,0.000000000,WAITING_INITIALPOS*39fd6faa
#INSPVAA,64,0,88.0,UNKNOWN,0,1681.950,38010912,54e2,14307;0,1681.950000000,0.00000000000,0.00000000000,0.0000,0.0000,0.0000,0.0000,0.000000000,0.000000000,0.000000000,WAITING_INITIALPOS*3c821a57
#INSPVAA,64,0,88.0,UNKNOWN,0,1682.000,38010912,54e2,14307;0,1682.000000000,0.00000000000,0.00000000000,0.0000,0.0000,0.0000,0.0000,0.000000000,0.000000000,0.000000000,WAITING_INITIALPOS*785db5eb
#INSPVAA,64,0,86.0,UNKNOWN,0,1682.050,38010912,54e2,14307;0,1682.050000000,0.00000000000,0.00000000000,0.0000,0.0000,0.0000,0.0000,0.000000000,0.000000000,0.000000000,WAITING_INITIALPOS*00b926f6
#INSPVAA,64,0,86.0,UNKNOWN,0,1682.100,38010912,54e2,14307;0,1682.100000000,0.00000000000,0.00000000000,0.0000,0.0000,0.0000,0.0000,0.000000000,0.000000000,0.000000000,WAITING_INITIALPOS*8841e9d9
#INSPVAA,64,0,86.0,UNKNOWN,0,1682.150,38010912,54e2,14307;0,1682.150000000,0.00000000000,0.00000000000,0.0000,0.0000,0.0000,0.0000,0.000000000,0.000000000,0.000000000,WAITING_INITIALPOS*8a26264c
#INSPVAA,64,0,86.0,UNKNOWN,0,1682.200,38010912,54e2,14307;0,1682.200000000,0.00000000000,0.00000000000,0.0000,0.0000,0.0000,0.0000,0.000000000,0.000000000,0.000000000,WAITING_INITIALPOS*a9f0722b
#INSPVAA,64,0,86.0,UNKNOWN,0,1682.250,38010912,54e2,14307;0,1682.250000000,0.00000000000,0.00000000000,0.0000,0.0000,0.0000,0.0000,0.000000000,0.000000000,0.000000000,WAITING_INITIALPOS*9f3b0cf0
#INSPVAA,64,0,86.0,UNKNOWN,0,1682.300,38010912,54e2,14307;0,1682.300000000,0.00000000000,0.00000000000,0.0000,0.0000,0.0000,0.0000,0.000000000,0.000000000,0.000000000,WAITING_INITIALPOS*b4132bcd
#INSPVAA,64,0,86.0,UNKNOWN,0,1682.350,38010912,54e2,14307;0,1682.350000000,0.00000000000,0.00000000000,0.0000,0.0000,0.0000,0.0000,0.000000000,0.000000000,0.000000000,WAITING_INITIALPOS*f3c65ace
#INSPVAA,64,0,86.0,UNKNOWN,0,1682.400,38010912,54e2,14307;0,1682.400000000,0.00000000000,0.00000000000,0.0000,0.0000,0.0000,0.0000,0.000000000,0.000000000,0.000000000,WAITING_INITIALPOS*d28bc1d0
#INSPVAA,64,0,86.0,UNKNOWN,0,1682.450,38010912,54e2,14307;0,1682.450000000,0.00000000000,0.00000000000,0.0000,0.0000,0.0000,0.0000,0.000000000,0.000000000,0.000000000,WAITING_INITIALPOS*b482bfa7
#INSPVAA,64,0,86.0,UNKNOWN,0,1682.500,38010912,54e2,14307;0,1682.500000000,0.00000000000,0.00000000000,0.0000,0.0000,0.0000,0.0000,0.000000000,0.000000000,0.000000000,WAITING_INITIALPOS*18b533eb
#INSPVAA,64,0,86.0,UNKNOWN,0,1682.550,38010912,54e2,14307;0,1682.550000000,0.00000000000,0.00000000000,0.0000,0.0000,0.0000,0.0000,0.000000000,0.000000000,0.000000000,WAITING_INITIALPOS*3e9308e3
#INSPVAA,64,0,86.0,UNKNOWN,0,1682.600,38010912,54e2,14307;0,1682.600000000,0.00000000000,0.00000000000,0.0000,0.0000,0.0000,0.0000,0.000000000,0.000000000,0.000000000,WAITING_INITIALPOS*6e545dbf
#INSPVAA,64,0,86.0,UNKNOWN,0,1682.650,38010912,54e2,14307;0,1682.650000000,0.00000000000,0.00000000000,0.0000,0.0000,0.0000,0.0000,0.000000000,0.000000000,0.000000000,WAITING_INITIALPOS*04437382
#INSPVAA,64,0,86.0,UNKNOWN,0,1682.700,38010912,54e2,14307;0,1682.700000000,0.00000000000,0.00000000000,0.0000,0.0000,0.0000,0.0000,0.000000000,0.000000000,0.000000000,WAITING_INITIALPOS*55f9fe27
#INSPVAA,64,0,86.0,UNKNOWN,0,1682.750,38010912,54e2,14307;0,1682.750000000,0.00000000000,0.00000000000,0.0000,0.0000,0.0000,0.0000,0.000000000,0.000000000,0.000000000,WAITING_INITIALPOS*dba3a204
#INSPVAA,64,0,86.0,UNKNOWN,0,1682.800,38010912,54e2,14307;0,1682.800000000,0.00000000000,0.00000000000,0.0000,0.0000,0.0000,0.0000,0.000000000,0.000000000,0.000000000,WAITING_INITIALPOS*663eef7f
#INSPVAA,64,0,86.0,UNKNOWN,0,1682.850,38010912,54e2,14307;0,1682.850000000,0.00000000000,0.00000000000,0.0000,0.0000,0.0000,0.0000,0.000000000,0.000000000,0.000000000,WAITING_INITIALPOS*21eb9e7c
#INSPVAA,64,0,86.0,UNKNOWN,0,1682.900,38010912,54e2,14307;0,1682.900000000,0.00000000000,0.00000000000,0.0000,0.0000,0.0000,0.0000,0.000000000,0.000000000,0.000000000,WAITING_INITIALPOS*46f2ac74
#INSPVAA,64,0,86.0,UNKNOWN,0,1682.950,38010912,54e2,14307;0,1682.950000000,0.00000000000,0.00000000000,0.0000,0.0000,0.0000,0.0000,0.000000000,0.000000000,0.000000000,WAITING_INITIALPOS*2bfd3821
#INSPVAA,64,0,86.0,UNKNOWN,0,1683.000,38010912,54e2,14307;0,1683.000000000,0.00000000000,0.00000000000,0.0000,0.0000,0.0000,0.0000,0.000000000,0.000000000,0.000000000,WAITING_INITIALPOS*d1d375fa
#INSPVAA,64,0,86.0,UNKNOWN,0,1683.050,38010912,54e2,14307;0,1683.050000000,0.00000000000,0.00000000000,0.0000,0.0000,0.0000,0.0000,0.000000000,0.000000000,0.000000000,WAITING_INITIALPOS*4f646c0a
#INSPVAA,64,0,87.0,UNKNOWN,0,1683.100,38010912,54e2,14307;0,1683.100000000,0.00000000000,0.00000000000,0.0000,0.0000,0.0000,0.0000,0.000000000,0.000000000,0.000000000,WAITING_INITIALPOS*74b2614e
#INSPVAA,64,0,87.0,UNKNOWN,0,1683.150,38010912,54e2,14307;0,1683.150000000,0.00000000000,0.00000000000,0.0000,0.0000,0.0000,0.0000,0.000000000,0.000000000,0.000000000,WAITING_INITIALPOS*76d5aedb
#INSPVAA,64,0,87.0,UNKNOWN,0,1683.200,38010912,54e2,14307;0,1683.200000000,0.00000000000,0.00000000000,0.0000,0.0000,0.0000,0.0000,0.000000000,0.000000000,0.000000000,WAITING_INITIALPOS*094b6bc0
#INSPVAA,64,0,87.0,UNKNOWN,0,1683.250,38010912,54e2,14307;0,1683.250000000,0.00000000000,0.00000000000,0.0000,0.0000,0.0000,0.0000,0.000000000,0.000000000,0.000000000,WAITING_INITIALPOS*871137e3
#INSPVAA,64,0,87.0,UNKNOWN,0,1683.300,38010912,54e2,14307;0,1683.300000000,0.00000000000,0.00000000000,0.0000,0.0000,0.0000,0.0000,0.000000000,0.000000000,0.000000000,WAITING_INITIALPOS*14a83226
#INSPVAA,64,0,87.0,UNKNOWN,0,1683.350,38010912,54e2,14307;0,1683.350000000,0.00000000000,0.00000000000,0.0000,0.0000,0.0000,0.0000,0.000000000,0.000000000,0.000000000,WAITING_INITIALPOS*3b0da28d
#INSPVAA,64,0,87.0,UNKNOWN,0,1683.400,38010912,54e2,14307;0,1683.400000000,0.00000000000,0.00000000000,0.0000,0.0000,0.0000,0.0000,0.000000000,0.000000000,0.000000000,WAITING_INITIALPOS*2e784947
#INSPVAA,64,0,87.0,UNKNOWN,0,1683.450,38010912,54e2,14307;0,1683.450000000,0.00000000000,0.00000000000,0.0000,0.0000,0.0000,0.0000,0.000000000,0.000000000,0.000000000,WAITING_INITIALPOS*458a7b0c
#INSPVAA,64,0,87.0,UNKNOWN,0,1683.500,38010912,54e2,14307;0,1683.500000000,0.00000000000,0.00000000000,0.0000,0.0000,0.0000,0.0000,0.000000000,0.000000000,0.000000000,WAITING_INITIALPOS*a4e24751
#INSPVAA,64,0,87.0,UNKNOWN,0,1683.550,38010912,54e2,14307;0,1683.550000000,0.00000000000,0.00000000000,0.0000,0.0000,0.0000,0.0000,0.000000000,0.000000000,0.000000000,WAITING_INITIALPOS*5225bf09
#INSPVAA,64,0,87.0,UNKNOWN,0,1683.600,38010912,54e2,14307;0,1683.600000000,0.00000000000,0.00000000000,0.0000,0.0000,0.0000,0.0000,0.000000000,0.000000000,0.000000000,WAITING_INITIALPOS*36da9a81
#INSPVAA,64,0,87.0,UNKNOWN,0,1683.650,38010912,54e2,14307;0,1683.650000000,0.00000000000,0.00000000000,0.0000,0.0000,0.0000,0.0000,0.000000000,0.000000000,0.000000000,WAITING_INITIALPOS*34bd5514
#INSPVAA,64,0,87.0,UNKNOWN,0,1683.700,38010912,54e2,14307;0,1683.700000000,0.00000000000,0.00000000000,0.0000,0.0000,0.0000,0.0000,0.000000000,0.000000000,0.000000000,WAITING_INITIALPOS*52417b6a
#INSPVAA,64,0,87.0,UNKNOWN,0,1683.750,38010912,54e2,14307;0,1683.750000000,0.00000000000,0.00000000000,0.0000,0.0000,0.0000,0.0000,0.000000000,0.000000000,0.000000000,WAITING_INITIALPOS*eb5d8492
#INSPVAA,64,0,87.0,UNKNOWN,0,1683.800,38010912,54e2,14307;0,1683.800000000,0.00000000000,0.00000000000,0.0000,0.0000,0.0000,0.0000,0.000000000,0.000000000,0.000000000,WAITING_INITIALPOS*0a885895
#INSPVAA,64,0,87.0,UNKNOWN,0,1683.850,38010912,54e2,14307;0,1683.850000000,0.00000000000,0.00000000000,0.0000,0.0000,0.0000,0.0000,0.000000000,0.000000000,0.000000000,WAITING_INITIALPOS*4d5d2996
#INSPVAA,64,0,87.0,UNKNOWN,0,1683.900,38010912,54e2,14307;0,1683.900000000,0.00000000000,0.00000000000,0.0000,0.0000,0.0000,0.0000,0.000000000,0.000000000,0.000000000,WAITING_INITIALPOS*faa5d8ce
#INSPVAA,64,0,87.0,UNKNOWN,0,1683.950,38010912,54e2,14307;0,1683.950000000,0.00000000000,0.00000000000,0.0000,0.0000,0.0000,0.0000,0.000000000,0.000000000,0.000000000,WAITING_INITIALPOS*29c6c87d
#INSPVAA,64,0,87.0,UNKNOWN,0,1684.000,38010912,54e2,14307;0,1684.000000000,0.00000000000,0.00000000000,0.0000,0.0000,0.0000,0.0000,0.000000000,0.000000000,0.000000000,WAITING_INITIALPOS*b7c483b1
#INSPVAA,64,0,87.0,UNKNOWN,0,1684.050,38010912,54e2,14307;0,1684.050000000,0.00000000000,0.00000000000,0.0000,0.0000,0.0000,0.0000,0.000000000,0.000000000,0.000000000,WAITING_INITIALPOS*41037be9
#INSPVAA,64,0,87.0,UNKNOWN,0,1684.100,38010912,54e2,14307;0,1684.100000000,0.00000000000,0.00000000000,0.0000,0.0000,0.0000,0.0000,0.000000000,0.000000000,0.000000000,WAITING_INITIALPOS*0bd816df
#INSPVAA,64,0,87.0,UNKNOWN,0,1684.150,38010912,54e2,14307;0,1684.150000000,0.00000000000,0.00000000000,0.0000,0.0000,0.0000,0.0000,0.000000000,0.000000000,0.000000000,WAITING_INITIALPOS*b12efbb2
#INSPVAA,64,0,87.0,UNKNOWN,0,1684.200,38010912,54e2,14307;0,1684.200000000,0.00000000000,0.00000000000,0.0000,0.0000,0.0000,0.0000,0.000000000,0.000000000,0.000000000,WAITING_INITIALPOS*755fcf5e
#INSPVAA,64,0,87.0,UNKNOWN,0,1684.250,38010912,54e2,14307;0,1684.250000000,0.00000000000,0.00000000000,0.0000,0.0000,0.0000,0.0000,0.000000000,0.000000000,0.000000000,WAITING_INITIALPOS*a433d10e
#INSPVAA,64,0,87.0,UNKNOWN,0,1684.300,38010912,54e2,14307;0,1684.300000000,0.00000000000,0.00000000000,0.0000,0.0000,0.0000,0.0000,0.000000000,0.000000000,0.000000000,WAITING_INITIALPOS*378ad4cb
#INSPVAA,64,0,87.0,UNKNOWN,0,1684.350,38010912,54e2,14307;0,1684.350000000,0.00000000000,0.00000000000,0.0000,0.0000,0.0000,0.0000,0.000000000,0.000000000,0.000000000,WAITING_INITIALPOS*b27c07d1
#INSPVAA,64,0,87.0,UNKNOWN,0,1684.400,38010912,54e2,14307;0,1684.400000000,0.00000000000,0.00000000000,0.0000,0.0000,0.0000,0.0000,0.000000000,0.000000000,0.000000000,WAITING_INITIALPOS*e9831c2e
#INSPVAA,64,0,87.0,UNKNOWN,0,1684.450,38010912,54e2,14307;0,1684.450000000,0.00000000000,0.00000000000,0.0000,0.0000,0.0000,0.0000,0.000000000,0.000000000,0.000000000,WAITING_INITIALPOS*3ae00c9d
#INSPVAA,64,0,87.0,UNKNOWN,0,1684.500,38010912,54e2,14307;0,1684.500000000,0.00000000000,0.00000000000,0.0000,0.0000,0.0000,0.0000,0.000000000,0.000000000,0.000000000,WAITING_INITIALPOS*23bdee15
#INSPVAA,64,0,87.0,UNKNOWN,0,1684.550,38010912,54e2,14307;0,1684.550000000,0.00000000000,0.00000000000,0.0000,0.0000,0.0000,0.0000,0.000000000,0.000000000,0.000000000,WAITING_INITIALPOS*bd0af7e5
#INSPVAA,64,0,87.0,UNKNOWN,0,1684.600,38010912,54e2,14307;0,1684.600000000,0.00000000000,0.00000000000,0.0000,0.0000,0.0000,0.0000,0.000000000,0.000000000,0.000000000,WAITING_INITIALPOS*2fee00a0
#INSPVAA,64,0,87.0,UNKNOWN,0,1684.650,38010912,54e2,14307;0,1684.650000000,0.00000000000,0.00000000000,0.0000,0.0000,0.0000,0.0000,0.000000000,0.000000000,0.000000000,WAITING_INITIALPOS*573b4fd4
#INSPVAA,64,0,87.0,UNKNOWN,0,1684.700,38010912,54e2,14307;0,1684.700000000,0.00000000000,0.00000000000,0.0000,0.0000,0.0000,0.0000,0.000000000,0.000000000,0.000000000,WAITING_INITIALPOS*e126a2fa
#INSPVAA,64,0,87.0,UNKNOWN,0,1684.750,38010912,54e2,14307;0,1684.750000000,0.00000000000,0.00000000000,0.0000,0.0000,0.0000,0.0000,0.000000000,0.000000000,0.000000000,WAITING_INITIALPOS*583a5d02
#INSPVAA,64,0,87.0,UNKNOWN,0,1684.800,38010912,54e2,14307;0,1684.800000000,0.00000000000,0.00000000000,0.0000,0.0000,0.0000,0.0000,0.000000000,0.000000000,0.000000000,WAITING_INITIALPOS*e5a71079
#INSPVAA,64,0,87.0,UNKNOWN,0,1684.850,38010912,54e2,14307;0,1684.850000000,0.00000000000,0.00000000000,0.0000,0.0000,0.0000,0.0000,0.000000000,0.000000000,0.000000000,WAITING_INITIALPOS*6051c363
#INSPVAA,64,0,87.0,UNKNOWN,0,1684.900,38010912,54e2,14307;0,1684.900000000,0.00000000000,0.00000000000,0.0000,0.0000,0.0000,0.0000,0.000000000,0.000000000,0.000000000,WAITING_INITIALPOS*158a9022
#INSPVAA,64,0,87.0,UNKNOWN,0,1684.950,38010912,54e2,14307;0,1684.950000000,0.00000000000,0.00000000000,0.0000,0.0000,0.0000,0.0000,0.000000000,0.000000000,0.000000000,WAITING_INITIALPOS*ae996139
#INSPVAA,64,0,87.0,UNKNOWN,0,1685.000,38010912,54e2,14307;0,1685.000000000,0.00000000000,0.00000000000,0.0000,0.0000,0.0000,0.0000,0.000000000,0.000000000,0.000000000,WAITING_INITIALPOS*524a8afc
#INSPVAA,64,0,86.5,UNKNOWN,0,1685.050,38010912,54e2,14307;0,1685.050000000,0.00000000000,0.00000000000,0.0000,0.0000,0.0000,0.0000,0.000000000,0.000000000,0.000000000,WAITING_INITIALPOS*61aff0c3
#INSPVAA,64,0,86.5,UNKNOWN,0,1685.100,38010912,54e2,14307;0,1685.100000000,0.00000000000,0.00000000000,0.0000,0.0000,0.0000,0.0000,0.000000000,0.000000000,0.000000000,WAITING_INITIALPOS*51c61d14
#INSPVAA,64,0,86.5,UNKNOWN,0,1685.150,38010912,54e2,14307;0,1685.150000000,0.00000000000,0.00000000000,0.0000,0.0000,0.0000,0.0000,0.000000000,0.000000000,0.000000000,WAITING_INITIALPOS*4163b3c8
#INSPVAA,64,0,86.5,UNKNOWN,0,1685.200,38010912,54e2,14307;0,1685.200000000,0.00000000000,0.00000000000,0.0000,0.0000,0.0000,0.0000,0.000000000,0.000000000,0.000000000,WAITING_INITIALPOS*b12af7f0
#INSPVAA,64,0,86.5,UNKNOWN,0,1685.250,38010912,54e2,14307;0,1685.250000000,0.00000000000,0.00000000000,0.0000,0.0000,0.0000,0.0000,0.000000000,0.000000000,0.000000000,WAITING_INITIALPOS*08360808
#INSPVAA,64,0,86.5,UNKNOWN,0,1685.300,38010912,54e2,14307;0,1685.300000000,0.00000000000,0.00000000000,0.0000,0.0000,0.0000,0.0000,0.000000000,0.000000000,0.000000000,WAITING_INITIALPOS*231e2f35
#INSPVAA,64,0,86.5,UNKNOWN,0,1685.350,38010912,54e2,14307;0,1685.350000000,0.00000000000,0.00000000000,0.0000,0.0000,0.0000,0.0000,0.000000000,0.000000000,0.000000000,WAITING_INITIALPOS*1e79ded7
#INSPVAA,64,0,86.5,UNKNOWN,0,1685.400,38010912,54e2,14307;0,1685.400000000,0.00000000000,0.00000000000,0.0000,0.0000,0.0000,0.0000,0.000000000,0.000000000,0.000000000,WAITING_INITIALPOS*19ce5454
#INSPVAA,64,0,86.5,UNKNOWN,0,1685.450,38010912,54e2,14307;0,1685.450000000,0.00000000000,0.00000000000,0.0000,0.0000,0.0000,0.0000,0.000000000,0.000000000,0.000000000,WAITING_INITIALPOS*caad44e7
#INSPVAA,64,0,86.5,UNKNOWN,0,1685.500,38010912,54e2,14307;0,1685.500000000,0.00000000000,0.00000000000,0.0000,0.0000,0.0000,0.0000,0.000000000,0.000000000,0.000000000,WAITING_INITIALPOS*de0bea53
#INSPVAA,64,0,86.5,UNKNOWN,0,1685.550,38010912,54e2,14307;0,1685.550000000,0.00000000000,0.00000000000,0.0000,0.0000,0.0000,0.0000,0.000000000,0.000000000,0.000000000,WAITING_INITIALPOS*5b4a6bdb
#INSPVAA,64,0,86.5,UNKNOWN,0,1685.600,38010912,54e2,14307;0,1685.600000000,0.00000000000,0.00000000000,0.0000,0.0000,0.0000,0.0000,0.000000000,0.000000000,0.000000000,WAITING_INITIALPOS*4507ceb2
#INSPVAA,64,0,86.5,UNKNOWN,0,1685.650,38010912,54e2,14307;0,1685.650000000,0.00000000000,0.00000000000,0.0000,0.0000,0.0000,0.0000,0.000000000,0.000000000,0.000000000,WAITING_INITIALPOS*55a2606e
#INSPVAA,64,0,86.5,UNKNOWN,0,1685.700,38010912,54e2,14307;0,1685.700000000,0.00000000000,0.00000000000,0.0000,0.0000,0.0000,0.0000,0.000000000,0.000000000,0.000000000,WAITING_INITIALPOS*8bcf6ce8
#INSPVAA,64,0,86.5,UNKNOWN,0,1685.750,38010912,54e2,14307;0,1685.750000000,0.00000000000,0.00000000000,0.0000,0.0000,0.0000,0.0000,0.000000000,0.000000000,0.000000000,WAITING_INITIALPOS*059530cb
#INSPVAA,64,0,86.5,UNKNOWN,0,1685.800,38010912,54e2,14307;0,1685.800000000,0.00000000000,0.00000000000,0.0000,0.0000,0.0000,0.0000,0.000000000,0.000000000,0.000000000,WAITING_INITIALPOS*03e78c47
#INSPVAA,64,0,86.5,UNKNOWN,0,1685.850,38010912,54e2,14307;0,1685.850000000,0.00000000000,0.00000000000,0.0000,0.0000,0.0000,0.0000,0.000000000,0.000000000,0.000000000,WAITING_INITIALPOS*56f09c0d
#INSPVAA,64,0,86.5,UNKNOWN,0,1685.900,38010912,54e2,14307;0,1685.900000000,0.00000000000,0.00000000000,0.0000,0.0000,0.0000,0.0000,0.000000000,0.000000000,0.000000000,WAITING_INITIALPOS*232bcf4c
#INSPVAA,64,0,86.5,UNKNOWN,0,1685.950,38010912,54e2,14307;0,1685.950000000,0.00000000000,0.00000000000,0.0000,0.0000,0.0000,0.0000,0.000000000,0.000000000,0.000000000,WAITING_INITIALPOS*48d9fd07
#INSPVAA,64,0,86.5,UNKNOWN,0,1686.000,38010912,54e2,14307;0,1686.000000000,0.00000000000,0.00000000000,0.0000,0.0000,0.0000,0.0000,0.000000000,0.000000000,0.000000000,WAITING_INITIALPOS*0c0652bb
#INSPVAA,64,0,85.5,UNKNOWN,0,1686.050,38010912,54e2,14307;0,1686.050000000,0.00000000000,0.00000000000,0.0000,0.0000,0.0000,0.0000,0.000000000,0.000000000,0.000000000,WAITING_INITIALPOS*075b4dc3
#INSPVAA,64,0,85.5,UNKNOWN,0,1686.100,38010912,54e2,14307;0,1686.100000000,0.00000000000,0.00000000000,0.0000,0.0000,0.0000,0.0000,0.000000000,0.000000000,0.000000000,WAITING_INITIALPOS*5f4241bc
#INSPVAA,64,0,85.5,UNKNOWN,0,1686.150,38010912,54e2,14307;0,1686.150000000,0.00000000000,0.00000000000,0.0000,0.0000,0.0000,0.0000,0.000000000,0.000000000,0.000000000,WAITING_INITIALPOS*27970ec8
#INSPVAA,64,0,85.5,UNKNOWN,0,1686.200,38010912,54e2,14307;0,1686.200000000,0.00000000000,0.00000000000,0.0000,0.0000,0.0000,0.0000,0.000000000,0.000000000,0.000000000,WAITING_INITIALPOS*5b7718dc
#INSPVAA,64,0,85.5,UNKNOWN,0,1686.250,38010912,54e2,14307;0,1686.250000000,0.00000000000,0.00000000000,0.0000,0.0000,0.0000,0.0000,0.000000000,0.000000000,0.000000000,WAITING_INITIALPOS*6dbc6607
#INSPVAA,64,0,85.5,UNKNOWN,0,1686.300,38010912,54e2,14307;0,1686.300000000,0.00000000000,0.00000000000,0.0000,0.0000,0.0000,0.0000,0.000000000,0.000000000,0.000000000,WAITING_INITIALPOS*19a20349
#INSPVAA,64,0,85.5,UNKNOWN,0,1686.350,38010912,54e2,14307;0,1686.350000000,0.00000000000,0.00000000000,0.0000,0.0000,0.0000,0.0000,0.000000000,0.000000000,0.000000000,WAITING_INITIALPOS*24c5f2ab
#INSPVAA,64,0,85.5,UNKNOWN,0,1686.400,38010912,54e2,14307;0,1686.400000000,0.00000000000,0.00000000000,0.0000,0.0000,0.0000,0.0000,0.000000000,0.000000000,0.000000000,WAITING_INITIALPOS*7f3ae954
#INSPVAA,64,0,85.5,UNKNOWN,0,1686.450,38010912,54e2,14307;0,1686.450000000,0.00000000000,0.00000000000,0.0000,0.0000,0.0000,0.0000,0.000000000,0.000000000,0.000000000,WAITING_INITIALPOS*14c8db1f
#INSPVAA,64,0,85.5,UNKNOWN,0,1686.500,38010912,54e2,14307;0,1686.500000000,0.00000000000,0.00000000000,0.0000,0.0000,0.0000,0.0000,0.000000000,0.000000000,0.000000000,WAITING_INITIALPOS*b8ff5753
#INSPVAA,64,0,85.5,UNKNOWN,0,1686.550,38010912,54e2,14307;0,1686.550000000,0.00000000000,0.00000000000,0.0000,0.0000,0.0000,0.0000,0.000000000,0.000000000,0.000000000,WAITING_INITIALPOS*93222067
#INSPVAA,64,0,85.5,UNKNOWN,0,1686.600,38010912,54e2,14307;0,1686.600000000,0.00000000000,0.00000000000,0.0000,0.0000,0.0000,0.0000,0.000000000,0.000000000,0.000000000,WAITING_INITIALPOS*b957f5da
#INSPVAA,64,0,85.5,UNKNOWN,0,1686.650,38010912,54e2,14307;0,1686.650000000,0.00000000000,0.00000000000,0.0000,0.0000,0.0000,0.0000,0.000000000,0.000000000,0.000000000,WAITING_INITIALPOS*03a118b7
#INSPVAA,64,0,85.5,UNKNOWN,0,1686.700,38010912,54e2,14307;0,1686.700000000,0.00000000000,0.00000000000,0.0000,0.0000,0.0000,0.0000,0.000000000,0.000000000,0.000000000,WAITING_INITIALPOS*a77e94d0
#INSPVAA,64,0,85.5,UNKNOWN,0,1686.750,38010912,54e2,14307;0,1686.750000000,0.00000000000,0.00000000000,0.0000,0.0000,0.0000,0.0000,0.000000000,0.000000000,0.000000000,WAITING_INITIALPOS*f9c50ba3
#INSPVAA,64,0,85.5,UNKNOWN,0,1686.800,38010912,54e2,14307;0,1686.800000000,0.00000000000,0.00000000000,0.0000,0.0000,0.0000,0.0000,0.000000000,0.000000000,0.000000000,WAITING_INITIALPOS*cb8fc7fb
#INSPVAA,64,0,85.5,UNKNOWN,0,1686.850,38010912,54e2,14307;0,1686.850000000,0.00000000000,0.00000000000,0.0000,0.0000,0.0000,0.0000,0.000000000,0.000000000,0.000000000,WAITING_INITIALPOS*f6e83619
#INSPVAA,64,0,85.5,UNKNOWN,0,1686.900,38010912,54e2,14307;0,1686.900000000,0.00000000000,0.00000000000,0.0000,0.0000,0.0000,0.0000,0.000000000,0.000000000,0.000000000,WAITING_INITIALPOS*4110c741
#INSPVAA,64,0,85.5,UNKNOWN,0,1686.950,38010912,54e2,14307;0,1686.950000000,0.00000000000,0.00000000000,0.0000,0.0000,0.0000,0.0000,0.000000000,0.000000000,0.000000000,WAITING_INITIALPOS*e8c15713
#INSPVAA,64,0,85.5,UNKNOWN,0,1687.000,38010912,54e2,14307;0,1687.000000000,0.00000000000,0.00000000000,0.0000,0.0000,0.0000,0.0000,0.000000000,0.000000000,0.000000000,WAITING_INITIALPOS*c20ed998
#INSPVAA,64,0,85.5,UNKNOWN,0,1687.050,38010912,54e2,14307;0,1687.050000000,0.00000000000,0.00000000000,0.0000,0.0000,0.0000,0.0000,0.000000000,0.000000000,0.000000000,WAITING_INITIALPOS*e2d5448e
#INSPVAA,64,0,87.0,UNKNOWN,0,1687.100,38010912,54e2,14307;0,1687.100000000,0.00000000000,0.00000000000,0.0000,0.0000,0.0000,0.0000,0.000000000,0.000000000,0.000000000,WAITING_INITIALPOS*546848f8
#INSPVAA,64,0,87.0,UNKNOWN,0,1687.150,38010912,54e2,14307;0,1687.150000000,0.00000000000,0.00000000000,0.0000,0.0000,0.0000,0.0000,0.000000000,0.000000000,0.000000000,WAITING_INITIALPOS*560f876d
#INSPVAA,64,0,87.0,UNKNOWN,0,1687.200,38010912,54e2,14307;0,1687.200000000,0.00000000000,0.00000000000,0.0000,0.0000,0.0000,0.0000,0.000000000,0.000000000,0.000000000,WAITING_INITIALPOS*dcf443b4
#INSPVAA,64,0,87.0,UNKNOWN,0,1687.250,38010912,54e2,14307;0,1687.250000000,0.00000000000,0.00000000000,0.0000,0.0000,0.0000,0.0000,0.000000000,0.000000000,0.000000000,WAITING_INITIALPOS*824fdcc7
#INSPVAA,64,0,87.0,UNKNOWN,0,1687.300,38010912,54e2,14307;0,1687.300000000,0.00000000000,0.00000000000,0.0000,0.0000,0.0000,0.0000,0.000000000,0.000000000,0.000000000,WAITING_INITIALPOS*9e215821
#INSPVAA,64,0,87.0,UNKNOWN,0,1687.350,38010912,54e2,14307;0,1687.350000000,0.00000000000,0.00000000000,0.0000,0.0000,0.0000,0.0000,0.000000000,0.000000000,0.000000000,WAITING_INITIALPOS*1bd78b3b
#INSPVAA,64,0,87.0,UNKNOWN,0,1687.400,38010912,54e2,14307;0,1687.400000000,0.00000000000,0.00000000000,0.0000,0.0000,0.0000,0.0000,0.000000000,0.000000000,0.000000000,WAITING_INITIALPOS*0ea260f1
#INSPVAA,64,0,87.0,UNKNOWN,0,1687.450,38010912,54e2,14307;0,1687.450000000,0.00000000000,0.00000000000,0.0000,0.0000,0.0000,0.0000,0.000000000,0.000000000,0.000000000,WAITING_INITIALPOS*cf03110b
#INSPVAA,64,0,87.0,UNKNOWN,0,1687.500,38010912,54e2,14307;0,1687.500000000,0.00000000000,0.00000000000,0.0000,0.0000,0.0000,0.0000,0.000000000,0.000000000,0.000000000,WAITING_INITIALPOS*63349d47
#INSPVAA,64,0,87.0,UNKNOWN,0,1687.550,38010912,54e2,14307;0,1687.550000000,0.00000000000,0.00000000000,0.0000,0.0000,0.0000,0.0000,0.000000000,0.000000000,0.000000000,WAITING_INITIALPOS*4512a64f
#INSPVAA,64,0,87.0,UNKNOWN,0,1687.600,38010912,54e2,14307;0,1687.600000000,0.00000000000,0.00000000000,0.0000,0.0000,0.0000,0.0000,0.000000000,0.000000000,0.000000000,WAITING_INITIALPOS*3a874400
#INSPVAA,64,0,87.0,UNKNOWN,0,1687.650,38010912,54e2,14307;0,1687.650000000,0.00000000000,0.00000000000,0.0000,0.0000,0.0000,0.0000,0.000000000,0.000000000,0.000000000,WAITING_INITIALPOS*38e08b95
#INSPVAA,64,0,87.0,UNKNOWN,0,1687.700,38010912,54e2,14307;0,1687.700000000,0.00000000000,0.00000000000,0.0000,0.0000,0.0000,0.0000,0.000000000,0.000000000,0.000000000,WAITING_INITIALPOS*f44fe65a
#INSPVAA,64,0,87.0,UNKNOWN,0,1687.750,38010912,54e2,14307;0,1687.750000000,0.00000000000,0.00000000000,0.0000,0.0000,0.0000,0.0000,0.000000000,0.000000000,0.000000000,WAITING_INITIALPOS*c2849881
#INSPVAA,64,0,87.0,UNKNOWN,0,1687.800,38010912,54e2,14307;0,1687.800000000,0.00000000000,0.00000000000,0.0000,0.0000,0.0000,0.0000,0.000000000,0.000000000,0.000000000,WAITING_INITIALPOS*f3b087d6
#INSPVAA,64,0,87.0,UNKNOWN,0,1687.850,38010912,54e2,14307;0,1687.850000000,0.00000000000,0.00000000000,0.0000,0.0000,0.0000,0.0000,0.000000000,0.000000000,0.000000000,WAITING_INITIALPOS*4100f717
#INSPVAA,64,0,87.0,UNKNOWN,0,1687.900,38010912,54e2,14307;0,1687.900000000,0.00000000000,0.00000000000,0.0000,0.0000,0.0000,0.0000,0.000000000,0.000000000,0.000000000,WAITING_INITIALPOS*2619c51f
#INSPVAA,64,0,87.0,UNKNOWN,0,1687.950,38010912,54e2,14307;0,1687.950000000,0.00000000000,0.00000000000,0.0000,0.0000,0.0000,0.0000,0.000000000,0.000000000,0.000000000,WAITING_INITIALPOS*8fc8554d
#INSPVAA,64,0,87.0,UNKNOWN,0,1688.000,38010912,54e2,14307;0,1688.000000000,0.00000000000,0.00000000000,0.0000,0.0000,0.0000,0.0000,0.000000000,0.000000000,0.000000000,WAITING_INITIALPOS*66c45b4b
#INSPVAA,64,0,85.0,UNKNOWN,0,1688.050,38010912,54e2,14307;0,1688.050000000,0.00000000000,0.00000000000,0.0000,0.0000,0.0000,0.0000,0.000000000,0.000000000,0.000000000,WAITING_INITIALPOS*721963f7
#INSPVAA,64,0,85.0,UNKNOWN,0,1688.100,38010912,54e2,14307;0,1688.100000000,0.00000000000,0.00000000000,0.0000,0.0000,0.0000,0.0000,0.000000000,0.000000000,0.000000000,WAITING_INITIALPOS*fc1c0ac6
#INSPVAA,64,0,85.0,UNKNOWN,0,1688.150,38010912,54e2,14307;0,1688.150000000,0.00000000000,0.00000000000,0.0000,0.0000,0.0000,0.0000,0.000000000,0.000000000,0.000000000,WAITING_INITIALPOS*960b24fb
#INSPVAA,64,0,85.0,UNKNOWN,0,1688.200,38010912,54e2,14307;0,1688.200000000,0.00000000000,0.00000000000,0.0000,0.0000,0.0000,0.0000,0.000000000,0.000000000,0.000000000,WAITING_INITIALPOS*28c890f6
#INSPVAA,64,0,85.0,UNKNOWN,0,1688.250,38010912,54e2,14307;0,1688.250000000,0.00000000000,0.00000000000,0.0000,0.0000,0.0000,0.0000,0.000000000,0.000000000,0.000000000,WAITING_INITIALPOS*a692ccd5
#INSPVAA,64,0,85.0,UNKNOWN,0,1688.300,38010912,54e2,14307;0,1688.300000000,0.00000000000,0.00000000000,0.0000,0.0000,0.0000,0.0000,0.000000000,0.000000000,0.000000000,WAITING_INITIALPOS*352bc910
#INSPVAA,64,0,85.0,UNKNOWN,0,1688.350,38010912,54e2,14307;0,1688.350000000,0.00000000000,0.00000000000,0.0000,0.0000,0.0000,0.0000,0.000000000,0.000000000,0.000000000,WAITING_INITIALPOS*efeb5879
#INSPVAA,64,0,85.0,UNKNOWN,0,1688.400,38010912,54e2,14307;0,1688.400000000,0.00000000000,0.00000000000,0.0000,0.0000,0.0000,0.0000,0.000000000,0.000000000,0.000000000,WAITING_INITIALPOS*cea6c367
#INSPVAA,64,0,85.0,UNKNOWN,0,1688.450,38010912,54e2,14307;0,1688.450000000,0.00000000000,0.00000000000,0.0000,0.0000,0.0000,0.0000,0.000000000,0.000000000,0.000000000,WAITING_INITIALPOS*67775335
#INSPVAA,64,0,85.0,UNKNOWN,0,1688.500,38010912,54e2,14307;0,1688.500000000,0.00000000000,0.00000000000,0.0000,0.0000,0.0000,0.0000,0.000000000,0.000000000,0.000000000,WAITING_INITIALPOS*73d1fd81
#INSPVAA,64,0,85.0,UNKNOWN,0,1688.550,38010912,54e2,14307;0,1688.550000000,0.00000000000,0.00000000000,0.0000,0.0000,0.0000,0.0000,0.000000000,0.000000000,0.000000000,WAITING_INITIALPOS*ed66e471
#INSPVAA,64,0,85.0,UNKNOWN,0,1688.600,38010912,54e2,14307;0,1688.600000000,0.00000000000,0.00000000000,0.0000,0.0000,0.0000,0.0000,0.000000000,0.000000000,0.000000000,WAITING_INITIALPOS*72795f08
#INSPVAA,64,0,85.0,UNKNOWN,0,1688.650,38010912,54e2,14307;0,1688.650000000,0.00000000000,0.00000000000,0.0000,0.0000,0.0000,0.0000,0.000000000,0.000000000,0.000000000,WAITING_INITIALPOS*701e909d
#INSPVAA,64,0,85.0,UNKNOWN,0,1688.700,38010912,54e2,14307;0,1688.700000000,0.00000000000,0.00000000000,0.0000,0.0000,0.0000,0.0000,0.000000000,0.000000000,0.000000000,WAITING_INITIALPOS*16e2bee3
#INSPVAA,64,0,85.0,UNKNOWN,0,1688.750,38010912,54e2,14307;0,1688.750000000,0.00000000000,0.00000000000,0.0000,0.0000,0.0000,0.0000,0.000000000,0.000000000,0.000000000,WAITING_INITIALPOS*5a9b40d9
#INSPVAA,64,0,85.0,UNKNOWN,0,1688.800,38010912,54e2,14307;0,1688.800000000,0.00000000000,0.00000000000,0.0000,0.0000,0.0000,0.0000,0.000000000,0.000000000,0.000000000,WAITING_INITIALPOS*e7060da2
#INSPVAA,64,0,85.0,UNKNOWN,0,1688.850,38010912,54e2,14307;0,1688.850000000,0.00000000000,0.00000000000,0.0000,0.0000,0.0000,0.0000,0.000000000,0.000000000,0.000000000,WAITING_INITIALPOS*3dc69ccb
#INSPVAA,64,0,85.0,UNKNOWN,0,1688.900,38010912,54e2,14307;0,1688.900000000,0.00000000000,0.00000000000,0.0000,0.0000,0.0000,0.0000,0.000000000,0.000000000,0.000000000,WAITING_INITIALPOS*32af4f6b
#INSPVAA,64,0,85.0,UNKNOWN,0,1688.950,38010912,54e2,14307;0,1688.950000000,0.00000000000,0.00000000000,0.0000,0.0000,0.0000,0.0000,0.000000000,0.000000000,0.000000000,WAITING_INITIALPOS*595d7d20
#INSPVAA,64,0,85.0,UNKNOWN,0,1689.000,38010912,54e2,14307;0,1689.000000000,0.00000000000,0.00000000000,0.0000,0.0000,0.0000,0.0000,0.000000000,0.000000000,0.000000000,WAITING_INITIALPOS*615092e2
#INSPVAA,64,0,85.0,UNKNOWN,0,1689.050,38010912,54e2,14307;0,1689.050000000,0.00000000000,0.00000000000,0.0000,0.0000,0.0000,0.0000,0.000000000,0.000000000,0.000000000,WAITING_INITIALPOS*97976aba
#INSPVAA,64,0,86.5,UNKNOWN,0,1689.100,38010912,54e2,14307;0,1689.100000000,0.00000000000,0.00000000000,0.0000,0.0000,0.0000,0.0000,0.000000000,0.000000000,0.000000000,WAITING_INITIALPOS*3eaa4108
#INSPVAA,64,0,86.5,UNKNOWN,0,1689.150,38010912,54e2,14307;0,1689.150000000,0.00000000000,0.00000000000,0.0000,0.0000,0.0000,0.0000,0.000000000,0.000000000,0.000000000,WAITING_INITIALPOS*845cac65
#INSPVAA,64,0,86.5,UNKNOWN,0,1689.200,38010912,54e2,14307;0,1689.200000000,0.00000000000,0.00000000000,0.0000,0.0000,0.0000,0.0000,0.000000000,0.000000000,0.000000000,WAITING_INITIALPOS*7415e85d
#INSPVAA,64,0,86.5,UNKNOWN,0,1689.250,38010912,54e2,14307;0,1689.250000000,0.00000000000,0.00000000000,0.0000,0.0000,0.0000,0.0000,0.000000000,0.000000000,0.000000000,WAITING_INITIALPOS*386c1667
#INSPVAA,64,0,86.5,UNKNOWN,0,1689.300,38010912,54e2,14307;0,1689.300000000,0.00000000000,0.00000000000,0.0000,0.0000,0.0000,0.0000,0.000000000,0.000000000,0.000000000,WAITING_INITIALPOS*c3a5f20a
#INSPVAA,64,0,86.5,UNKNOWN,0,1689.350,38010912,54e2,14307;0,1689.350000000,0.00000000000,0.00000000000,0.0000,0.0000,0.0000,0.0000,0.000000000,0.000000000,0.000000000,WAITING_INITIALPOS*711582cb
#INSPVAA,64,0,86.5,UNKNOWN,0,1689.400,38010912,54e2,14307;0,1689.400000000,0.00000000000,0.00000000000,0.0000,0.0000,0.0000,0.0000,0.000000000,0.000000000,0.000000000,WAITING_INITIALPOS*dcf14bf9
#INSPVAA,64,0,86.5,UNKNOWN,0,1689.450,38010912,54e2,14307;0,1689.450000000,0.00000000000,0.00000000000,0.0000,0.0000,0.0000,0.0000,0.000000000,0.000000000,0.000000000,WAITING_INITIALPOS*0f925b4a
#INSPVAA,64,0,86.5,UNKNOWN,0,1689.500,38010912,54e2,14307;0,1689.500000000,0.00000000000,0.00000000000,0.0000,0.0000,0.0000,0.0000,0.000000000,0.000000000,0.000000000,WAITING_INITIALPOS*b167b64f
#INSPVAA,64,0,86.5,UNKNOWN,0,1689.550,38010912,54e2,14307;0,1689.550000000,0.00000000000,0.00000000000,0.0000,0.0000,0.0000,0.0000,0.000000000,0.000000000,0.000000000,WAITING_INITIALPOS*2fd0afbf
#INSPVAA,64,0,86.5,UNKNOWN,0,1689.600,38010912,54e2,14307;0,1689.600000000,0.00000000000,0.00000000000,0.0000,0.0000,0.0000,0.0000,0.000000000,0.000000000,0.000000000,WAITING_INITIALPOS*2a6b92ae
#INSPVAA,64,0,86.5,UNKNOWN,0,1689.650,38010912,54e2,14307;0,1689.650000000,0.00000000000,0.00000000000,0.0000,0.0000,0.0000,0.0000,0.000000000,0.000000000,0.000000000,WAITING_INITIALPOS*909d7fc3
#INSPVAA,64,0,86.5,UNKNOWN,0,1689.700,38010912,54e2,14307;0,1689.700000000,0.00000000000,0.00000000000,0.0000,0.0000,0.0000,0.0000,0.000000000,0.000000000,0.000000000,WAITING_INITIALPOS*4ef07345
#INSPVAA,64,0,86.5,UNKNOWN,0,1689.750,38010912,54e2,14307;0,1689.750000000,0.00000000000,0.00000000000,0.0000,0.0000,0.0000,0.0000,0.000000000,0.000000000,0.000000000,WAITING_INITIALPOS*6af96cd7
#INSPVAA,64,0,86.5,UNKNOWN,0,1689.800,38010912,54e2,14307;0,1689.800000000,0.00000000000,0.00000000000,0.0000,0.0000,0.0000,0.0000,0.000000000,0.000000000,0.000000000,WAITING_INITIALPOS*e35c5178
#INSPVAA,64,0,86.5,UNKNOWN,0,1689.850,38010912,54e2,14307;0,1689.850000000,0.00000000000,0.00000000000,0.0000,0.0000,0.0000,0.0000,0.000000000,0.000000000,0.000000000,WAITING_INITIALPOS*66aa8262
#INSPVAA,64,0,86.5,UNKNOWN,0,1689.900,38010912,54e2,14307;0,1689.900000000,0.00000000000,0.00000000000,0.0000,0.0000,0.0000,0.0000,0.000000000,0.000000000,0.000000000,WAITING_INITIALPOS*e614d0e1
#INSPVAA,64,0,86.5,UNKNOWN,0,1689.950,38010912,54e2,14307;0,1689.950000000,0.00000000000,0.00000000000,0.0000,0.0000,0.0000,0.0000,0.000000000,0.000000000,0.000000000,WAITING_INITIALPOS*5d0721fa
#INSPVAA,64,0,86.5,UNKNOWN,0,1690.000,38010912,54e2,14307;0,1690.000000000,0.00000000000,0.00000000000,0.0000,0.0000,0.0000,0.0000,0.000000000,0.000000000,0.000000000,WAITING_INITIALPOS*636a0ea7
#INSPVAA,64,0,86.0,UNKNOWN,0,1690.050,38010912,54e2,14307;0,1690.050000000,0.00000000000,0.00000000000,0.0000,0.0000,0.0000,0.0000,0.000000000,0.000000000,0.000000000,WAITING_INITIALPOS*f163d7ba
#INSPVAA,64,0,86.0,UNKNOWN,0,1690.100,38010912,54e2,14307;0,1690.100000000,0.00000000000,0.00000000000,0.0000,0.0000,0.0000,0.0000,0.000000000,0.000000000,0.000000000,WAITING_INITIALPOS*799b1895
#INSPVAA,64,0,86.0,UNKNOWN,0,1690.150,38010912,54e2,14307;0,1690.150000000,0.00000000000,0.00000000000,0.0000,0.0000,0.0000,0.0000,0.000000000,0.000000000,0.000000000,WAITING_INITIALPOS*c59053e6
#INSPVAA,64,0,86.0,UNKNOWN,0,1690.200,38010912,54e2,14307;0,1690.200000000,0.00000000000,0.00000000000,0.0000,0.0000,0.0000,0.0000,0.000000000,0.000000000,0.000000000,WAITING_INITIALPOS*699186a2
#INSPVAA,64,0,86.0,UNKNOWN,0,1690.250,38010912,54e2,14307;0,1690.250000000,0.00000000000,0.00000000000,0.0000,0.0000,0.0000,0.0000,0.000000000,0.000000000,0.000000000,WAITING_INITIALPOS*25e87898
#INSPVAA,64,0,86.0,UNKNOWN,0,1690.300,38010912,54e2,14307;0,1690.300000000,0.00000000000,0.00000000000,0.0000,0.0000,0.0000,0.0000,0.000000000,0.000000000,0.000000000,WAITING_INITIALPOS*0ec05fa5
#INSPVAA,64,0,86.0,UNKNOWN,0,1690.350,38010912,54e2,14307;0,1690.350000000,0.00000000000,0.00000000000,0.0000,0.0000,0.0000,0.0000,0.000000000,0.000000000,0.000000000,WAITING_INITIALPOS*33a7ae47
#INSPVAA,64,0,86.0,UNKNOWN,0,1690.400,38010912,54e2,14307;0,1690.400000000,0.00000000000,0.00000000000,0.0000,0.0000,0.0000,0.0000,0.000000000,0.000000000,0.000000000,WAITING_INITIALPOS*9d3db47a
#INSPVAA,64,0,86.0,UNKNOWN,0,1690.450,38010912,54e2,14307;0,1690.450000000,0.00000000000,0.00000000000,0.0000,0.0000,0.0000,0.0000,0.000000000,0.000000000,0.000000000,WAITING_INITIALPOS*262e4561
#INSPVAA,64,0,86.0,UNKNOWN,0,1690.500,38010912,54e2,14307;0,1690.500000000,0.00000000000,0.00000000000,0.0000,0.0000,0.0000,0.0000,0.000000000,0.000000000,0.000000000,WAITING_INITIALPOS*f0ab49cc
#INSPVAA,64,0,86.0,UNKNOWN,0,1690.550,38010912,54e2,14307;0,1690.550000000,0.00000000000,0.00000000000,0.0000,0.0000,0.0000,0.0000,0.000000000,0.000000000,0.000000000,WAITING_INITIALPOS*d68d72c4
#INSPVAA,64,0,86.0,UNKNOWN,0,1690.600,38010912,54e2,14307;0,1690.600000000,0.00000000000,0.00000000000,0.0000,0.0000,0.0000,0.0000,0.000000000,0.000000000,0.000000000,WAITING_INITIALPOS*fcf8a779
#INSPVAA,64,0,86.0,UNKNOWN,0,1690.650,38010912,54e2,14307;0,1690.650000000,0.00000000000,0.00000000000,0.0000,0.0000,0.0000,0.0000,0.000000000,0.000000000,0.000000000,WAITING_INITIALPOS*4bf50628
#INSPVAA,64,0,86.0,UNKNOWN,0,1690.700,38010912,54e2,14307;0,1690.700000000,0.00000000000,0.00000000000,0.0000,0.0000,0.0000,0.0000,0.000000000,0.000000000,0.000000000,WAITING_INITIALPOS*95980aae
#INSPVAA,64,0,86.0,UNKNOWN,0,1690.750,38010912,54e2,14307;0,1690.750000000,0.00000000000,0.00000000000,0.0000,0.0000,0.0000,0.0000,0.000000000,0.000000000,0.000000000,WAITING_INITIALPOS*1bc2568d
#INSPVAA,64,0,86.0,UNKNOWN,0,1690.800,38010912,54e2,14307;0,1690.800000000,0.00000000000,0.00000000000,0.0000,0.0000,0.0000,0.0000,0.000000000,0.000000000,0.000000000,WAITING_INITIALPOS*dced9b17
#INSPVAA,64,0,86.0,UNKNOWN,0,1690.850,38010912,54e2,14307;0,1690.850000000,0.00000000000,0.00000000000,0.0000,0.0000,0.0000,0.0000,0.000000000,0.000000000,0.000000000,WAITING_INITIALPOS*e18a6af5
#INSPVAA,64,0,86.0,UNKNOWN,0,1690.900,38010912,54e2,14307;0,1690.900000000,0.00000000000,0.00000000000,0.0000,0.0000,0.0000,0.0000,0.000000000,0.000000000,0.000000000,WAITING_INITIALPOS*0944d9de
#INSPVAA,64,0,86.0,UNKNOWN,0,1690.950,38010912,54e2,14307;0,1690.950000000,0.00000000000,0.00000000000,0.0000,0.0000,0.0000,0.0000,0.000000000,0.000000000,0.000000000,WAITING_INITIALPOS*da27c96d
#INSPVAA,64,0,86.0,UNKNOWN,0,1691.000,38010912,54e2,14307;0,1691.000000000,0.00000000000,0.00000000000,0.0000,0.0000,0.0000,0.0000,0.000000000,0.000000000,0.000000000,WAITING_INITIALPOS*200984b6
#INSPVAA,64,0,86.0,UNKNOWN,0,1691.050,38010912,54e2,14307;0,1691.050000000,0.00000000000,0.00000000000,0.0000,0.0000,0.0000,0.0000,0.000000000,0.000000000,0.000000000,WAITING_INITIALPOS*c40c1da7
#INSPVAA,64,0,86.0,UNKNOWN,0,1691.100,38010912,54e2,14307;0,1691.100000000,0.00000000000,0.00000000000,0.0000,0.0000,0.0000,0.0000,0.000000000,0.000000000,0.000000000,WAITING_INITIALPOS*9c1511d8
#INSPVAA,64,0,86.0,UNKNOWN,0,1691.150,38010912,54e2,14307;0,1691.150000000,0.00000000000,0.00000000000,0.0000,0.0000,0.0000,0.0000,0.000000000,0.000000000,0.000000000,WAITING_INITIALPOS*201e5aab
#INSPVAA,64,0,86.0,UNKNOWN,0,1691.200,38010912,54e2,14307;0,1691.200000000,0.00000000000,0.00000000000,0.0000,0.0000,0.0000,0.0000,0.000000000,0.000000000,0.000000000,WAITING_INITIALPOS*d0571e93
#INSPVAA,64,0,86.0,UNKNOWN,0,1691.250,38010912,54e2,14307;0,1691.250000000,0.00000000000,0.00000000000,0.0000,0.0000,0.0000,0.0000,0.000000000,0.000000000,0.000000000,WAITING_INITIALPOS*5e0d42b0
#INSPVAA,64,0,86.0,UNKNOWN,0,1691.300,38010912,54e2,14307;0,1691.300000000,0.00000000000,0.00000000000,0.0000,0.0000,0.0000,0.0000,0.000000000,0.000000000,0.000000000,WAITING_INITIALPOS*b706c794
#INSPVAA,64,0,86.0,UNKNOWN,0,1691.350,38010912,54e2,14307;0,1691.350000000,0.00000000000,0.00000000000,0.0000,0.0000,0.0000,0.0000,0.000000000,0.000000000,0.000000000,WAITING_INITIALPOS*e211d7de
#INSPVAA,64,0,86.0,UNKNOWN,0,1691.400,38010912,54e2,14307;0,1691.400000000,0.00000000000,0.00000000000,0.0000,0.0000,0.0000,0.0000,0.000000000,0.000000000,0.000000000,WAITING_INITIALPOS*78b3bd37
#INSPVAA,64,0,86.0,UNKNOWN,0,1691.450,38010912,54e2,14307;0,1691.450000000,0.00000000000,0.00000000000,0.0000,0.0000,0.0000,0.0000,0.000000000,0.000000000,0.000000000,WAITING_INITIALPOS*13418f7c
#INSPVAA,64,0,86.0,UNKNOWN,0,1691.500,38010912,54e2,14307;0,1691.500000000,0.00000000000,0.00000000000,0.0000,0.0000,0.0000,0.0000,0.000000000,0.000000000,0.000000000,WAITING_INITIALPOS*bf760330
#INSPVAA,64,0,86.0,UNKNOWN,0,1691.550,38010912,54e2,14307;0,1691.550000000,0.00000000000,0.00000000000,0.0000,0.0000,0.0000,0.0000,0.000000000,0.000000000,0.000000000,WAITING_INITIALPOS*33037b89
#INSPVAA,64,0,86.0,UNKNOWN,0,1691.600,38010912,54e2,14307;0,1691.600000000,0.00000000000,0.00000000000,0.0000,0.0000,0.0000,0.0000,0.000000000,0.000000000,0.000000000,WAITING_INITIALPOS*2d4edee0
#INSPVAA,64,0,86.0,UNKNOWN,0,1691.650,38010912,54e2,14307;0,1691.650000000,0.00000000000,0.00000000000,0.0000,0.0000,0.0000,0.0000,0.000000000,0.000000000,0.000000000,WAITING_INITIALPOS*6276a164
#INSPVAA,64,0,86.0,UNKNOWN,0,1691.700,38010912,54e2,14307;0,1691.700000000,0.00000000000,0.00000000000,0.0000,0.0000,0.0000,0.0000,0.000000000,0.000000000,0.000000000,WAITING_INITIALPOS*048a8f1a
#INSPVAA,64,0,86.0,UNKNOWN,0,1691.750,38010912,54e2,14307;0,1691.750000000,0.00000000000,0.00000000000,0.0000,0.0000,0.0000,0.0000,0.000000000,0.000000000,0.000000000,WAITING_INITIALPOS*3241f1c1
#INSPVAA,64,0,86.0,UNKNOWN,0,1691.800,38010912,54e2,14307;0,1691.800000000,0.00000000000,0.00000000000,0.0000,0.0000,0.0000,0.0000,0.000000000,0.000000000,0.000000000,WAITING_INITIALPOS*a926ad27
#INSPVAA,64,0,86.0,UNKNOWN,0,1691.850,38010912,54e2,14307;0,1691.850000000,0.00000000000,0.00000000000,0.0000,0.0000,0.0000,0.0000,0.000000000,0.000000000,0.000000000,WAITING_INITIALPOS*94415cc5
#INSPVAA,64,0,86.0,UNKNOWN,0,1691.900,38010912,54e2,14307;0,1691.900000000,0.00000000000,0.00000000000,0.0000,0.0000,0.0000,0.0000,0.000000000,0.000000000,0.000000000,WAITING_INITIALPOS*23b9ad9d
#INSPVAA,64,0,86.0,UNKNOWN,0,1691.950,38010912,54e2,14307;0,1691.950000000,0.00000000000,0.00000000000,0.0000,0.0000,0.0000,0.0000,0.000000000,0.000000000,0.000000000,WAITING_INITIALPOS*7f0d3c0d
#INSPVAA,64,0,86.0,UNKNOWN,0,1692.000,38010912,54e2,14307;0,1692.000000000,0.00000000000,0.00000000000,0.0000,0.0000,0.0000,0.0000,0.000000000,0.000000000,0.000000000,WAITING_INITIALPOS*5f63f327
#INSPVAA,64,0,86.0,UNKNOWN,0,1692.050,38010912,54e2,14307;0,1692.050000000,0.00000000000,0.00000000000,0.0000,0.0000,0.0000,0.0000,0.000000000,0.000000000,0.000000000,WAITING_INITIALPOS*d3168b9e
#INSPVAA,64,0,87.5,UNKNOWN,0,1692.100,38010912,54e2,14307;0,1692.100000000,0.00000000000,0.00000000000,0.0000,0.0000,0.0000,0.0000,0.000000000,0.000000000,0.000000000,WAITING_INITIALPOS*f6bc277e
#INSPVAA,64,0,87.5,UNKNOWN,0,1692.150,38010912,54e2,14307;0,1692.150000000,0.00000000000,0.00000000000,0.0000,0.0000,0.0000,0.0000,0.000000000,0.000000000,0.000000000,WAITING_INITIALPOS*4c4aca13
#INSPVAA,64,0,87.5,UNKNOWN,0,1692.200,38010912,54e2,14307;0,1692.200000000,0.00000000000,0.00000000000,0.0000,0.0000,0.0000,0.0000,0.000000000,0.000000000,0.000000000,WAITING_INITIALPOS*36577a19
#INSPVAA,64,0,87.5,UNKNOWN,0,1692.250,38010912,54e2,14307;0,1692.250000000,0.00000000000,0.00000000000,0.0000,0.0000,0.0000,0.0000,0.000000000,0.000000000,0.000000000,WAITING_INITIALPOS*68ece56a
#INSPVAA,64,0,87.5,UNKNOWN,0,1692.300,38010912,54e2,14307;0,1692.300000000,0.00000000000,0.00000000000,0.0000,0.0000,0.0000,0.0000,0.000000000,0.000000000,0.000000000,WAITING_INITIALPOS*81e7604e
#INSPVAA,64,0,87.5,UNKNOWN,0,1692.350,38010912,54e2,14307;0,1692.350000000,0.00000000000,0.00000000000,0.0000,0.0000,0.0000,0.0000,0.000000000,0.000000000,0.000000000,WAITING_INITIALPOS*0411b354
#INSPVAA,64,0,87.5,UNKNOWN,0,1692.400,38010912,54e2,14307;0,1692.400000000,0.00000000000,0.00000000000,0.0000,0.0000,0.0000,0.0000,0.000000000,0.000000000,0.000000000,WAITING_INITIALPOS*255c284a
#INSPVAA,64,0,87.5,UNKNOWN,0,1692.450,38010912,54e2,14307;0,1692.450000000,0.00000000000,0.00000000000,0.0000,0.0000,0.0000,0.0000,0.000000000,0.000000000,0.000000000,WAITING_INITIALPOS*79e8b9da
#INSPVAA,64,0,87.5,UNKNOWN,0,1692.500,38010912,54e2,14307;0,1692.500000000,0.00000000000,0.00000000000,0.0000,0.0000,0.0000,0.0000,0.000000000,0.000000000,0.000000000,WAITING_INITIALPOS*bdafd43e
#INSPVAA,64,0,87.5,UNKNOWN,0,1692.550,38010912,54e2,14307;0,1692.550000000,0.00000000000,0.00000000000,0.0000,0.0000,0.0000,0.0000,0.000000000,0.000000000,0.000000000,WAITING_INITIALPOS*59aa4d2f
#INSPVAA,64,0,87.5,UNKNOWN,0,1692.600,38010912,54e2,14307;0,1692.600000000,0.00000000000,0.00000000000,0.0000,0.0000,0.0000,0.0000,0.000000000,0.000000000,0.000000000,WAITING_INITIALPOS*cb4eba6a
#INSPVAA,64,0,87.5,UNKNOWN,0,1692.650,38010912,54e2,14307;0,1692.650000000,0.00000000000,0.00000000000,0.0000,0.0000,0.0000,0.0000,0.000000000,0.000000000,0.000000000,WAITING_INITIALPOS*c92975ff
#INSPVAA,64,0,87.5,UNKNOWN,0,1692.700,38010912,54e2,14307;0,1692.700000000,0.00000000000,0.00000000000,0.0000,0.0000,0.0000,0.0000,0.000000000,0.000000000,0.000000000,WAITING_INITIALPOS*a22e17bd
#INSPVAA,64,0,87.5,UNKNOWN,0,1692.750,38010912,54e2,14307;0,1692.750000000,0.00000000000,0.00000000000,0.0000,0.0000,0.0000,0.0000,0.000000000,0.000000000,0.000000000,WAITING_INITIALPOS*94e56966
#INSPVAA,64,0,87.5,UNKNOWN,0,1692.800,38010912,54e2,14307;0,1692.800000000,0.00000000000,0.00000000000,0.0000,0.0000,0.0000,0.0000,0.000000000,0.000000000,0.000000000,WAITING_INITIALPOS*53caa4fc
#INSPVAA,64,0,87.5,UNKNOWN,0,1692.850,38010912,54e2,14307;0,1692.850000000,0.00000000000,0.00000000000,0.0000,0.0000,0.0000,0.0000,0.000000000,0.000000000,0.000000000,WAITING_INITIALPOS*d63c77e6
#INSPVAA,64,0,87.5,UNKNOWN,0,1692.900,38010912,54e2,14307;0,1692.900000000,0.00000000000,0.00000000000,0.0000,0.0000,0.0000,0.0000,0.000000000,0.000000000,0.000000000,WAITING_INITIALPOS*d955a446
#INSPVAA,64,0,87.5,UNKNOWN,0,1692.950,38010912,54e2,14307;0,1692.950000000,0.00000000000,0.00000000000,0.0000,0.0000,0.0000,0.0000,0.000000000,0.000000000,0.000000000,WAITING_INITIALPOS*ed91d47e
#INSPVAA,64,0,87.5,UNKNOWN,0,1693.000,38010912,54e2,14307;0,1693.000000000,0.00000000000,0.00000000000,0.0000,0.0000,0.0000,0.0000,0.000000000,0.000000000,0.000000000,WAITING_INITIALPOS*af2ebb5d
#INSPVAA,64,0,86.0,UNKNOWN,0,1693.050,38010912,54e2,14307;0,1693.050000000,0.00000000000,0.00000000000,0.0000,0.0000,0.0000,0.0000,0.000000000,0.000000000,0.000000000,WAITING_INITIALPOS*9ccbc162
#INSPVAA,64,0,86.0,UNKNOWN,0,1693.100,38010912,54e2,14307;0,1693.100000000,0.00000000000,0.00000000000,0.0000,0.0000,0.0000,0.0000,0.000000000,0.000000000,0.000000000,WAITING_INITIALPOS*d610ac54
#INSPVAA,64,0,86.0,UNKNOWN,0,1693.150,38010912,54e2,14307;0,1693.150000000,0.00000000000,0.00000000000,0.0000,0.0000,0.0000,0.0000,0.000000000,0.000000000,0.000000000,WAITING_INITIALPOS*bc078269
#INSPVAA,64,0,86.0,UNKNOWN,0,1693.200,38010912,54e2,14307;0,1693.200000000,0.00000000000,0.00000000000,0.0000,0.0000,0.0000,0.0000,0.000000000,0.000000000,0.000000000,WAITING_INITIALPOS*f22242b7
#INSPVAA,64,0,86.0,UNKNOWN,0,1693.250,38010912,54e2,14307;0,1693.250000000,0.00000000000,0.00000000000,0.0000,0.0000,0.0000,0.0000,0.000000000,0.000000000,0.000000000,WAITING_INITIALPOS*c4e93c6c
#INSPVAA,64,0,86.0,UNKNOWN,0,1693.300,38010912,54e2,14307;0,1693.300000000,0.00000000000,0.00000000000,0.0000,0.0000,0.0000,0.0000,0.000000000,0.000000000,0.000000000,WAITING_INITIALPOS*efc11b51
