#INSPVAA,COM2,0,87.0,FINESTEERING,2008,325354.950,02000000,54e2,14307;2008,325354.950000000,0.00000000000,0.00000000000,0.0000,0.0000,0.0000,0.0000,0.000000000,0.000000000,0.000000000,INS_INACTIVE*e01e405d
#INSPVAA,COM2,0,87.0,FINESTEERING,2008,325355.000,02000000,54e2,14307;2008,325355.000000000,0.00000000000,0.00000000000,0.0000,0.0000,0.0000,0.0000,0.000000000,0.000000000,0.000000000,INS_INACTIVE*5b9d032b
#INSPVAA,COM2,0,87.0,FINESTEERING,2008,325355.050,02000000,54e2,14307;2008,325355.050000000,0.00000000000,0.00000000000,0.0000,0.0000,0.0000,0.0000,0.000000000,0.000000000,0.000000000,WAITING_INITIALPOS*093ff0bb
#INSPVAA,COM2,0,87.0,FINESTEERING,2008,325355.100,02000000,54e2,14307;2008,325355.100000000,0.00000000000,0.00000000000,0.0000,0.0000,0.0000,0.0000,0.000000000,0.000000000,0.000000000,WAITING_INITIALPOS*40b59fd0
#INSPVAA,COM2,0,87.0,FINESTEERING,2008,325355.150,02000000,54e2,14307;2008,325355.150000000,0.00000000000,0.00000000000,0.0000,0.0000,0.0000,0.0000,0.000000000,0.000000000,0.000000000,WAITING_INITIALPOS*0ad57598
#INSPVAA,COM2,0,87.0,FINESTEERING,2008,325355.200,02000000,54e2,14307;2008,325355.200000000,0.00000000000,0.00000000000,0.0000,0.0000,0.0000,0.0000,0.000000000,0.000000000,0.000000000,WAITING_INITIALPOS*eb0f52b4
#INSPVAA,COM2,0,87.0,FINESTEERING,2008,325355.250,02000000,54e2,14307;2008,325355.250000000,0.00000000000,0.00000000000,0.0000,0.0000,0.0000,0.0000,0.000000000,0.000000000,0.000000000,WAITING_INITIALPOS*0f4f65e3
#INSPVAA,COM2,0,87.0,FINESTEERING,2008,325355.300,02000000,54e2,14307;2008,325355.300000000,0.00000000000,0.00000000000,0.0000,0.0000,0.0000,0.0000,0.000000000,0.000000000,0.000000000,WAITING_INITIALPOS*1c50c009
#INSPVAA,COM2,0,87.0,FINESTEERING,2008,325355.350,02000000,54e2,14307;2008,325355.350000000,0.00000000000,0.00000000000,0.0000,0.0000,0.0000,0.0000,0.000000000,0.000000000,0.000000000,WAITING_INITIALPOS*58d4b357
#INSPVAA,COM2,0,87.0,FINESTEERING,2008,325355.400,02000000,54e2,14307;2008,325355.400000000,0.00000000000,0.00000000000,0.0000,0.0000,0.0000,0.0000,0.000000000,0.000000000,0.000000000,WAITING_INITIALPOS*05a67d40
#INSPVAA,COM2,0,87.0,FINESTEERING,2008,325355.450,02000000,54e2,14307;2008,325355.450000000,0.00000000000,0.00000000000,0.0000,0.0000,0.0000,0.0000,0.000000000,0.000000000,0.000000000,WAITING_INITIALPOS*7fc72c1f
#INSPVAA,COM2,0,87.0,FINESTEERING,2008,325355.500,02000000,54e2,14307;2008,325355.500000000,0.00000000000,0.00000000000,0.0000,0.0000,0.0000,0.0000,0.000000000,0.000000000,0.000000000,WAITING_INITIALPOS*165715af
#INSPVAA,COM2,0,87.0,FINESTEERING,2008,325355.550,02000000,54e2,14307;2008,325355.550000000,0.00000000000,0.00000000000,0.0000,0.0000,0.0000,0.0000,0.000000000,0.000000000,0.000000000,WAITING_INITIALPOS*f4175483
#INSPVAA,COM2,0,87.0,FINESTEERING,2008,325355.600,02000000,54e2,14307;2008,325355.600000000,0.00000000000,0.00000000000,0.0000,0.0000,0.0000,0.0000,0.000000000,0.000000000,0.000000000,WAITING_INITIALPOS*fbc992fe
#INSPVAA,COM2,0,87.0,FINESTEERING,2008,325355.650,02000000,54e2,14307;2008,325355.650000000,0.00000000000,0.00000000000,0.0000,0.0000,0.0000,0.0000,0.000000000,0.000000000,0.000000000,WAITING_INITIALPOS*b1a978b6
#INSPVAA,COM2,0,87.0,FINESTEERING,2008,325355.700,02000000,54e2,14307;2008,325355.700000000,0.00000000000,0.00000000000,0.0000,0.0000,0.0000,0.0000,0.000000000,0.000000000,0.000000000,WAITING_INITIALPOS*c6c635dc
#INSPVAA,COM2,0,87.0,FINESTEERING,2008,325355.750,02000000,54e2,14307;2008,325355.750000000,0.00000000000,0.00000000000,0.0000,0.0000,0.0000,0.0000,0.000000000,0.000000000,0.000000000,WAITING_INITIALPOS*9a172073
#INSPVAA,COM2,0,87.0,FINESTEERING,2008,325355.800,02000000,54e2,14307;2008,325355.800000000,0.00000000000,0.00000000000,0.0000,0.0000,0.0000,0.0000,0.000000000,0.000000000,0.000000000,WAITING_INITIALPOS*fb645c5b
#INSPVAA,COM2,0,87.0,FINESTEERING,2008,325355.850,02000000,54e2,14307;2008,325355.850000000,0.00000000000,0.00000000000,0.0000,0.0000,0.0000,0.0000,0.000000000,0.000000000,0.000000000,WAITING_INITIALPOS*d790cead
#INSPVAA,COM2,0,87.0,FINESTEERING,2008,325355.900,02000000,54e2,14307;2008,325355.900000000,0.00000000000,0.00000000000,0.0000,0.0000,0.0000,0.0000,0.000000000,0.000000000,0.000000000,WAITING_INITIALPOS*52dd9ac9
#INSPVAA,COM2,0,87.0,FINESTEERING,2008,325355.950,02000000,54e2,14307;2008,325355.950000000,0.00000000000,0.00000000000,0.0000,0.0000,0.0000,0.0000,0.000000000,0.000000000,0.000000000,WAITING_INITIALPOS*ea9f698f
#INSPVAA,COM2,0,87.0,FINESTEERING,2008,325356.000,02000000,54e2,14307;2008,325356.000000000,0.00000000000,0.00000000000,0.0000,0.0000,0.0000,0.0000,0.000000000,0.000000000,0.000000000,WAITING_INITIALPOS*25813f6c
#INSPVAA,COM2,0,80.5,FINESTEERING,2008,325356.050,02000000,54e2,14307;2008,325356.050000000,39.14909762396,-77.61911953635,149.8315,-0.0264,0.0061,0.0444,0.256460153,0.173535074,-0.000000000,INITIALIZING_BIASES*0a36cac3
#INSPVAA,COM2,0,80.5,FINESTEERING,2008,325356.100,02000000,54e2,14307;2008,325356.100000000,39.14909762348,-77.61911953620,149.8316,-0.0264,0.0061,0.0444,0.256460153,0.173535074,-0.000000000,INITIALIZING_BIASES*aa7eff88
#INSPVAA,COM2,0,80.5,FINESTEERING,2008,325356.150,02000000,54e2,14307;2008,325356.150000000,39.14909762491,-77.61911953663,149.8313,-0.0264,0.0061,0.0444,0.256460153,0.173535074,-0.000000000,INITIALIZING_BIASES*c004ca41
#INSPVAA,COM2,0,80.5,FINESTEERING,2008,325356.200,02000000,54e2,14307;2008,325356.200000000,39.14909762443,-77.61911953649,149.8314,-0.0264,0.0061,0.0444,0.256460153,0.173535074,-0.000000000,INITIALIZING_BIASES*2acc136e
#INSPVAA,COM2,0,80.5,FINESTEERING,2008,325356.250,02000000,54e2,14307;2008,325356.250000000,39.14909762396,-77.61911953635,149.8315,-0.0264,0.0061,0.0444,0.256460153,0.173535074,-0.000000000,INITIALIZING_BIASES*d288e2ce
#INSPVAA,COM2,0,80.5,FINESTEERING,2008,325356.300,02000000,54e2,14307;2008,325356.300000000,39.14909762348,-77.61911953620,149.8316,-0.0264,0.0061,0.0444,0.256460153,0.173535074,-0.000000000,INITIALIZING_BIASES*42f9c4cb
#INSPVAA,COM2,0,80.5,FINESTEERING,2008,325356.350,02000000,54e2,14307;2008,325356.350000000,39.14909762491,-77.61911953663,149.8313,-0.0264,0.0061,0.0444,0.256460153,0.173535074,-0.000000000,INITIALIZING_BIASES*e817ff22
#INSPVAA,COM2,0,80.5,FINESTEERING,2008,325356.400,02000000,54e2,14307;2008,325356.400000000,39.14909762443,-77.61911953649,149.8314,-0.0264,0.0061,0.0444,0.256460153,0.173535074,-0.000000000,INITIALIZING_BIASES*71960d17
#INSPVAA,COM2,0,80.5,FINESTEERING,2008,325356.450,02000000,54e2,14307;2008,325356.450000000,39.14909762395,-77.61911953635,149.8315,-0.0264,0.0061,0.0444,0.256460153,0.173535074,-0.000000000,INITIALIZING_BIASES*2f8de345
#INSPVAA,COM2,0,80.5,FINESTEERING,2008,325356.500,02000000,54e2,14307;2008,325356.500000000,39.14909762348,-77.61911953620,149.8316,-0.0264,0.0061,0.0444,0.256460153,0.173535074,-0.000000000,INITIALIZING_BIASES*0d6af0c0
#INSPVAA,COM2,0,80.5,FINESTEERING,2008,325356.550,02000000,54e2,14307;2008,325356.550000000,39.14909762491,-77.61911953663,149.8313,-0.0264,0.0061,0.0444,0.256460153,0.173535074,-0.000000000,INITIALIZING_BIASES*7e41d671
#INSPVAA,COM2,0,80.5,FINESTEERING,2008,325356.600,02000000,54e2,14307;2008,325356.600000000,39.14909762443,-77.61911953649,149.8314,-0.0264,0.0061,0.0444,0.256460153,0.173535074,-0.000000000,INITIALIZING_BIASES*e8760bab
#INSPVAA,COM2,0,80.5,FINESTEERING,2008,325356.650,02000000,54e2,14307;2008,325356.650000000,39.14909762395,-77.61911953635,149.8315,-0.0264,0.0061,0.0444,0.256460153,0.173535074,-0.000000000,INITIALIZING_BIASES*2e7bc8a9
#INSPVAA,COM2,0,80.5,FINESTEERING,2008,325356.700,02000000,54e2,14307;2008,325356.700000000,39.14909762348,-77.61911953620,149.8316,-0.0264,0.0061,0.0444,0.256460153,0.173535074,-0.000000000,INITIALIZING_BIASES*11e1f07d
#INSPVAA,COM2,0,80.5,FINESTEERING,2008,325356.750,02000000,54e2,14307;2008,325356.750000000,39.14909762491,-77.61911953663,149.8313,-0.0264,0.0061,0.0444,0.256460153,0.173535074,-0.000000000,INITIALIZING_BIASES*98208ffb
#INSPVAA,COM2,0,80.5,FINESTEERING,2008,325356.800,02000000,54e2,14307;2008,325356.800000000,39.14909762443,-77.61911953649,149.8314,-0.0264,0.0061,0.0444,0.256460153,0.173535074,-0.000000000,INITIALIZING_BIASES*cd504545
#INSPVAA,COM2,0,80.5,FINESTEERING,2008,325356.850,02000000,54e2,14307;2008,325356.850000000,39.14909762395,-77.61911953635,149.8315,-0.0264,0.0061,0.0444,0.256460153,0.173535074,-0.000000000,INITIALIZING_BIASES*537b6820
#INSPVAA,COM2,0,80.5,FINESTEERING,2008,325356.900,02000000,54e2,14307;2008,325356.900000000,39.14909762348,-77.61911953620,149.8316,-0.0264,0.0061,0.0444,0.256460153,0.173535074,-0.000000000,INITIALIZING_BIASES*728421ca
#INSPVAA,COM2,0,80.5,FINESTEERING,2008,325356.950,02000000,54e2,14307;2008,325356.950000000,39.14909762491,-77.61911953663,149.8313,-0.0264,0.0061,0.0444,0.256460153,0.173535074,-0.000000000,INITIALIZING_BIASES*b8d63ff1
#INSPVAA,COM2,0,80.5,FINESTEERING,2008,325357.000,02000000,54e2,14307;2008,325357.000000000,39.14909762443,-77.61911953649,149.8314,-0.0264,0.0061,0.0444,0.256460153,0.173535074,-0.000000000,INITIALIZING_BIASES*950b940c
#INSPVAA,COM2,0,80.5,FINESTEERING,2008,325357.050,02000000,54e2,14307;2008,325357.050000000,39.14909766316,-77.61911962786,149.8587,-0.0042,0.0008,0.0824,0.253452054,0.176453406,-0.000000000,INITIALIZING_BIASES*e903514f
#INSPVAA,COM2,0,81.5,FINESTEERING,2008,325357.100,02000000,54e2,14307;2008,325357.100000000,39.14909766309,-77.61911962784,149.8589,-0.0042,0.0008,0.0824,0.253452054,0.176453406,-0.000000000,INITIALIZING_BIASES*5c900a2a
#INSPVAA,COM2,0,81.5,FINESTEERING,2008,325357.150,02000000,54e2,14307;2008,325357.150000000,39.14909766332,-77.61911962790,149.8584,-0.0042,0.0008,0.0824,0.253452054,0.176453406,-0.000000000,INITIALIZING_BIASES*cd7df880
#INSPVAA,COM2,0,81.5,FINESTEERING,2008,325357.200,02000000,54e2,14307;2008,325357.200000000,39.14909766324,-77.61911962788,149.8585,-0.0042,0.0008,0.0824,0.253452054,0.176453406,-0.000000000,INITIALIZING_BIASES*e3eaf585
#INSPVAA,COM2,0,81.5,FINESTEERING,2008,325357.250,02000000,54e2,14307;2008,325357.250000000,39.14909766316,-77.61911962786,149.8587,-0.0042,0.0008,0.0824,0.253452054,0.176453406,-0.000000000,INITIALIZING_BIASES*7c20b4e8
#INSPVAA,COM2,0,81.5,FINESTEERING,2008,325357.300,02000000,54e2,14307;2008,325357.300000000,39.14909766309,-77.61911962784,149.8589,-0.0042,0.0008,0.0824,0.253452054,0.176453406,-0.000000000,INITIALIZING_BIASES*b337667e
#INSPVAA,COM2,0,81.5,FINESTEERING,2008,325357.350,02000000,54e2,14307;2008,325357.350000000,39.14909766332,-77.61911962790,149.8584,-0.0042,0.0008,0.0824,0.253452054,0.176453406,-0.000000000,INITIALIZING_BIASES*7d1f1ea8
#INSPVAA,COM2,0,81.5,FINESTEERING,2008,325357.400,02000000,54e2,14307;2008,325357.400000000,39.14909766324,-77.61911962788,149.8585,-0.0042,0.0008,0.0824,0.253452054,0.176453406,-0.000000000,INITIALIZING_BIASES*7254deef
#INSPVAA,COM2,0,81.5,FINESTEERING,2008,325357.450,02000000,54e2,14307;2008,325357.450000000,39.14909766316,-77.61911962786,149.8587,-0.0042,0.0008,0.0824,0.253452054,0.176453406,-0.000000000,INITIALIZING_BIASES*9a3ba88d
#INSPVAA,COM2,0,81.5,FINESTEERING,2008,325357.500,02000000,54e2,14307;2008,325357.500000000,39.14909766309,-77.61911962784,149.8589,-0.0042,0.0008,0.0824,0.253452054,0.176453406,-0.000000000,INITIALIZING_BIASES*4dad51ac
#INSPVAA,COM2,0,81.5,FINESTEERING,2008,325357.550,02000000,54e2,14307;2008,325357.550000000,39.14909766332,-77.61911962790,149.8584,-0.0042,0.0008,0.0824,0.253452054,0.176453406,-0.000000000,INITIALIZING_BIASES*fda685f7
#INSPVAA,COM2,0,81.5,FINESTEERING,2008,325357.600,02000000,54e2,14307;2008,325357.600000000,39.14909766324,-77.61911962788,149.8585,-0.0042,0.0008,0.0824,0.253452054,0.176453406,-0.000000000,INITIALIZING_BIASES*e1728d34
#INSPVAA,COM2,0,81.5,FINESTEERING,2008,325357.650,02000000,54e2,14307;2008,325357.650000000,39.14909766316,-77.61911962786,149.8587,-0.0042,0.0008,0.0824,0.253452054,0.176453406,-0.000000000,INITIALIZING_BIASES*2b5570f9
#INSPVAA,COM2,0,81.5,FINESTEERING,2008,325357.700,02000000,54e2,14307;2008,325357.700000000,39.14909766309,-77.61911962784,149.8589,-0.0042,0.0008,0.0824,0.253452054,0.176453406,-0.000000000,INITIALIZING_BIASES*56a5bee3
#INSPVAA,COM2,0,81.5,FINESTEERING,2008,325357.750,02000000,54e2,14307;2008,325357.750000000,39.14909766332,-77.61911962790,149.8584,-0.0042,0.0008,0.0824,0.253452054,0.176453406,-0.000000000,INITIALIZING_BIASES*d6bd5e11
#INSPVAA,COM2,0,81.5,FINESTEERING,2008,325357.800,02000000,54e2,14307;2008,325357.800000000,39.14909766324,-77.61911962788,149.8585,-0.0042,0.0008,0.0824,0.253452054,0.176453406,-0.000000000,INITIALIZING_BIASES*6b2f1d73
#INSPVAA,COM2,0,81.5,FINESTEERING,2008,325357.850,02000000,54e2,14307;2008,325357.850000000,39.14909766316,-77.61911962786,149.8587,-0.0042,0.0008,0.0824,0.253452054,0.176453406,-0.000000000,INITIALIZING_BIASES*1460cc3a
#INSPVAA,COM2,0,81.5,FINESTEERING,2008,325357.900,02000000,54e2,14307;2008,325357.900000000,39.14909766309,-77.61911962784,149.8589,-0.0042,0.0008,0.0824,0.253452054,0.176453406,-0.000000000,INITIALIZING_BIASES*25cb19ad
#INSPVAA,COM2,0,81.5,FINESTEERING,2008,325357.950,02000000,54e2,14307;2008,325357.950000000,39.14909766332,-77.61911962790,149.8584,-0.0042,0.0008,0.0824,0.253452054,0.176453406,-0.000000000,INITIALIZING_BIASES*ba79fa98
#INSPVAA,COM2,0,81.5,FINESTEERING,2008,325358.000,02000000,54e2,14307;2008,325358.000000000,39.14909766324,-77.61911962788,149.8585,-0.0042,0.0008,0.0824,0.253452054,0.176453406,-0.000000000,INITIALIZING_BIASES*64719aa1
#INSPVAA,COM2,0,81.5,FINESTEERING,2008,325358.050,02000000,54e2,14307;2008,325358.050000000,39.14909760858,-77.61911982445,149.8409,-0.0002,-0.0108,-0.0407,0.251704955,0.175351546,-0.000000000,INITIALIZING_BIASES*da245771
#INSPVAA,COM2,0,82.5,FINESTEERING,2008,325358.100,02000000,54e2,14307;2008,325358.100000000,39.14909760858,-77.61911982470,149.8408,-0.0002,-0.0108,-0.0407,0.251704955,0.175351546,-0.000000000,INITIALIZING_BIASES*f976019f
#INSPVAA,COM2,0,82.5,FINESTEERING,2008,325358.150,02000000,54e2,14307;2008,325358.150000000,39.14909760859,-77.61911982395,149.8411,-0.0002,-0.0108,-0.0407,0.251704955,0.175351546,-0.000000000,INITIALIZING_BIASES*5f7d59dd
#INSPVAA,COM2,0,82.5,FINESTEERING,2008,325358.200,02000000,54e2,14307;2008,325358.200000000,39.14909760859,-77.61911982420,149.8410,-0.0002,-0.0108,-0.0407,0.251704955,0.175351546,-0.000000000,INITIALIZING_BIASES*c3953ee2
#INSPVAA,COM2,0,82.5,FINESTEERING,2008,325358.250,02000000,54e2,14307;2008,325358.250000000,39.14909760858,-77.61911982445,149.8409,-0.0002,-0.0108,-0.0407,0.251704955,0.175351546,-0.000000000,INITIALIZING_BIASES*4e85eebb
#INSPVAA,COM2,0,82.5,FINESTEERING,2008,325358.300,02000000,54e2,14307;2008,325358.300000000,39.14909760858,-77.61911982470,149.8408,-0.0002,-0.0108,-0.0407,0.251704955,0.175351546,-0.000000000,INITIALIZING_BIASES*94f137f9
#INSPVAA,COM2,0,82.5,FINESTEERING,2008,325358.350,02000000,54e2,14307;2008,325358.350000000,39.14909760859,-77.61911982395,149.8411,-0.0002,-0.0108,-0.0407,0.251704955,0.175351546,-0.000000000,INITIALIZING_BIASES*025443ef
#INSPVAA,COM2,0,82.5,FINESTEERING,2008,325358.400,02000000,54e2,14307;2008,325358.400000000,39.14909760859,-77.61911982420,149.8410,-0.0002,-0.0108,-0.0407,0.251704955,0.175351546,-0.000000000,INITIALIZING_BIASES*0ad0fef1
#INSPVAA,COM2,0,82.5,FINESTEERING,2008,325358.450,02000000,54e2,14307;2008,325358.450000000,39.14909760858,-77.61911982445,149.8409,-0.0002,-0.0108,-0.0407,0.251704955,0.175351546,-0.000000000,INITIALIZING_BIASES*efc9cb52
#INSPVAA,COM2,0,82.5,FINESTEERING,2008,325358.500,02000000,54e2,14307;2008,325358.500000000,39.14909760858,-77.61911982470,149.8408,-0.0002,-0.0108,-0.0407,0.251704955,0.175351546,-0.000000000,INITIALIZING_BIASES*6a48476b
#INSPVAA,COM2,0,82.5,FINESTEERING,2008,325358.550,02000000,54e2,14307;2008,325358.550000000,39.14909760859,-77.61911982395,149.8411,-0.0002,-0.0108,-0.0407,0.251704955,0.175351546,-0.000000000,INITIALIZING_BIASES*63e5226f
#INSPVAA,COM2,0,82.5,FINESTEERING,2008,325358.600,02000000,54e2,14307;2008,325358.600000000,39.14909760859,-77.61911982420,149.8410,-0.0002,-0.0108,-0.0407,0.251704955,0.175351546,-0.000000000,INITIALIZING_BIASES*82f7052f
#INSPVAA,COM2,0,82.5,FINESTEERING,2008,325358.650,02000000,54e2,14307;2008,325358.650000000,39.14909760858,-77.61911982445,149.8409,-0.0002,-0.0108,-0.0407,0.251704955,0.175351546,-0.000000000,INITIALIZING_BIASES*726aaea0
#INSPVAA,COM2,0,82.5,FINESTEERING,2008,325358.700,02000000,54e2,14307;2008,325358.700000000,39.14909760858,-77.61911982470,149.8408,-0.0002,-0.0108,-0.0407,0.251704955,0.175351546,-0.000000000,INITIALIZING_BIASES*785613ea
#INSPVAA,COM2,0,82.5,FINESTEERING,2008,325358.750,02000000,54e2,14307;2008,325358.750000000,39.14909760859,-77.61911982395,149.8411,-0.0002,-0.0108,-0.0407,0.251704955,0.175351546,-0.000000000,INITIALIZING_BIASES*b1c27e4c
#INSPVAA,COM2,0,82.5,FINESTEERING,2008,325358.800,02000000,54e2,14307;2008,325358.800000000,39.14909760859,-77.61911982420,149.8410,-0.0002,-0.0108,-0.0407,0.251704955,0.175351546,-0.000000000,INITIALIZING_BIASES*3b47744f
#INSPVAA,COM2,0,82.5,FINESTEERING,2008,325358.850,02000000,54e2,14307;2008,325358.850000000,39.14909760858,-77.61911982445,149.8409,-0.0002,-0.0108,-0.0407,0.251704955,0.175351546,-0.000000000,INITIALIZING_BIASES*7353e037
#INSPVAA,COM2,0,82.5,FINESTEERING,2008,325358.900,02000000,54e2,14307;2008,325358.900000000,39.14909760858,-77.61911982470,149.8408,-0.0002,-0.0108,-0.0407,0.251704955,0.175351546,-0.000000000,INITIALIZING_BIASES*26a00d54
#INSPVAA,COM2,0,82.5,FINESTEERING,2008,325358.950,02000000,54e2,14307;2008,325358.950000000,39.14909760859,-77.61911982395,149.8411,-0.0002,-0.0108,-0.0407,0.251704955,0.175351546,-0.000000000,INITIALIZING_BIASES*23d3a177
#INSPVAA,COM2,0,82.5,FINESTEERING,2008,325359.000,02000000,54e2,14307;2008,325359.000000000,39.14909760859,-77.61911982420,149.8410,-0.0002,-0.0108,-0.0407,0.251704955,0.175351546,-0.000000000,INITIALIZING_BIASES*50912e0f
#INSPVAA,COM2,0,81.5,FINESTEERING,2008,325359.050,02000000,54e2,14307;2008,325359.050000000,39.14909769011,-77.61911986991,149.8638,-0.0168,0.0060,0.0191,0.256869160,0.179522398,-0.000000000,INITIALIZING_BIASES*5db3ee0a
#INSPVAA,COM2,0,81.5,FINESTEERING,2008,325359.100,02000000,54e2,14307;2008,325359.100000000,39.14909768981,-77.61911986977,149.8638,-0.0168,0.0060,0.0191,0.256869160,0.179522398,-0.000000000,INITIALIZING_BIASES*f1b0988a
#INSPVAA,COM2,0,81.5,FINESTEERING,2008,325359.150,02000000,54e2,14307;2008,325359.150000000,39.14909769071,-77.61911987019,149.8637,-0.0168,0.0060,0.0191,0.256869160,0.179522398,-0.000000000,INITIALIZING_BIASES*02cca12b
#INSPVAA,COM2,0,81.5,FINESTEERING,2008,325359.200,02000000,54e2,14307;2008,325359.200000000,39.14909769041,-77.61911987005,149.8638,-0.0168,0.0060,0.0191,0.256869160,0.179522398,-0.000000000,INITIALIZING_BIASES*94de6397
#INSPVAA,COM2,0,81.5,FINESTEERING,2008,325359.250,02000000,54e2,14307;2008,325359.250000000,39.14909769011,-77.61911986991,149.8638,-0.0168,0.0060,0.0191,0.256869160,0.179522398,-0.000000000,INITIALIZING_BIASES*943ac87e
#INSPVAA,COM2,0,81.5,FINESTEERING,2008,325359.300,02000000,54e2,14307;2008,325359.300000000,39.14909768981,-77.61911986977,149.8638,-0.0168,0.0060,0.0191,0.256869160,0.179522398,-0.000000000,INITIALIZING_BIASES*b5958e47
#INSPVAA,COM2,0,81.5,FINESTEERING,2008,325359.350,02000000,54e2,14307;2008,325359.350000000,39.14909769071,-77.61911987019,149.8637,-0.0168,0.0060,0.0191,0.256869160,0.179522398,-0.000000000,INITIALIZING_BIASES*6fa5699e
#INSPVAA,COM2,0,81.5,FINESTEERING,2008,325359.400,02000000,54e2,14307;2008,325359.400000000,39.14909769041,-77.61911987005,149.8638,-0.0168,0.0060,0.0191,0.256869160,0.179522398,-0.000000000,INITIALIZING_BIASES*a0d62617
#INSPVAA,COM2,0,81.5,FINESTEERING,2008,325359.450,02000000,54e2,14307;2008,325359.450000000,39.14909769011,-77.61911986991,149.8638,-0.0168,0.0060,0.0191,0.256869160,0.179522398,-0.000000000,INITIALIZING_BIASES*0b49c58b
#INSPVAA,COM2,0,81.5,FINESTEERING,2008,325359.500,02000000,54e2,14307;2008,325359.500000000,39.14909768981,-77.61911986977,149.8638,-0.0168,0.0060,0.0191,0.256869160,0.179522398,-0.000000000,INITIALIZING_BIASES*e300939d
#INSPVAA,COM2,0,81.5,FINESTEERING,2008,325359.550,02000000,54e2,14307;2008,325359.550000000,39.14909769071,-77.61911987019,149.8637,-0.0168,0.0060,0.0191,0.256869160,0.179522398,-0.000000000,INITIALIZING_BIASES*2dbd5a7f
#INSPVAA,COM2,0,81.5,FINESTEERING,2008,325359.600,02000000,54e2,14307;2008,325359.600000000,39.14909769041,-77.61911987005,149.8638,-0.0168,0.0060,0.0191,0.256869160,0.179522398,-0.000000000,INITIALIZING_BIASES*0ea8f25b
#INSPVAA,COM2,0,81.5,FINESTEERING,2008,325359.650,02000000,54e2,14307;2008,325359.650000000,39.14909769011,-77.61911986991,149.8638,-0.0168,0.0060,0.0191,0.256869160,0.179522398,-0.000000000,INITIALIZING_BIASES*9737df05
#INSPVAA,COM2,0,81.5,FINESTEERING,2008,325359.700,02000000,54e2,14307;2008,325359.700000000,39.14909768981,-77.61911986977,149.8638,-0.0168,0.0060,0.0191,0.256869160,0.179522398,-0.000000000,INITIALIZING_BIASES*3bc0fc70
#INSPVAA,COM2,0,81.5,FINESTEERING,2008,325359.750,02000000,54e2,14307;2008,325359.750000000,39.14909769071,-77.61911987019,149.8637,-0.0168,0.0060,0.0191,0.256869160,0.179522398,-0.000000000,INITIALIZING_BIASES*66febea8
#INSPVAA,COM2,0,81.5,FINESTEERING,2008,325359.800,02000000,54e2,14307;2008,325359.800000000,39.14909769041,-77.61911987005,149.8638,-0.0168,0.0060,0.0191,0.256869160,0.179522398,-0.000000000,INITIALIZING_BIASES*5caa2002
#INSPVAA,COM2,0,81.5,FINESTEERING,2008,325359.850,02000000,54e2,14307;2008,325359.850000000,39.14909769011,-77.61911986991,149.8638,-0.0168,0.0060,0.0191,0.256869160,0.179522398,-0.000000000,INITIALIZING_BIASES*b68e586f
#INSPVAA,COM2,0,81.5,FINESTEERING,2008,325359.900,02000000,54e2,14307;2008,325359.900000000,39.14909768981,-77.61911986977,149.8638,-0.0168,0.0060,0.0191,0.256869160,0.179522398,-0.000000000,INITIALIZING_BIASES*d42e7293
#INSPVAA,COM2,0,81.5,FINESTEERING,2008,325359.950,02000000,54e2,14307;2008,325359.950000000,39.14909769071,-77.61911987019,149.8637,-0.0168,0.0060,0.0191,0.256869160,0.179522398,-0.000000000,INITIALIZING_BIASES*17e23898
#INSPVAA,COM2,0,81.5,FINESTEERING,2008,325360.000,02000000,54e2,14307;2008,325360.000000000,39.14909769041,-77.61911987005,149.8638,-0.0168,0.0060,0.0191,0.256869160,0.179522398,-0.000000000,INITIALIZING_BIASES*1b3426cc
#INSPVAA,COM2,0,81.5,FINESTEERING,2008,325360.050,02000000,54e2,14307;2008,325360.050000000,39.14909770465,-77.61911990440,149.8641,-0.0521,0.0086,-0.0474,0.254982165,0.175601067,-0.000000000,INITIALIZING_BIASES*4bd756ef
#INSPVAA,COM2,0,81.5,FINESTEERING,2008,325360.100,02000000,54e2,14307;2008,325360.100000000,39.14909770371,-77.61911990420,149.8640,-0.0521,0.0086,-0.0474,0.254982165,0.175601067,-0.000000000,INITIALIZING_BIASES*32cd31fb
#INSPVAA,COM2,0,81.5,FINESTEERING,2008,325360.150,02000000,54e2,14307;2008,325360.150000000,39.14909770652,-77.61911990480,149.8643,-0.0521,0.0086,-0.0474,0.254982165,0.175601067,-0.000000000,INITIALIZING_BIASES*a982e877
#INSPVAA,COM2,0,81.5,FINESTEERING,2008,325360.200,02000000,54e2,14307;2008,325360.200000000,39.14909770558,-77.61911990460,149.8642,-0.0521,0.0086,-0.0474,0.254982165,0.175601067,-0.000000000,INITIALIZING_BIASES*1ef3dead
#INSPVAA,COM2,0,81.5,FINESTEERING,2008,325360.250,02000000,54e2,14307;2008,325360.250000000,39.14909770465,-77.61911990440,149.8641,-0.0521,0.0086,-0.0474,0.254982165,0.175601067,-0.000000000,INITIALIZING_BIASES*5bc7dd2e
#INSPVAA,COM2,0,81.5,FINESTEERING,2008,325360.300,02000000,54e2,14307;2008,325360.300000000,39.14909770371,-77.61911990420,149.8640,-0.0521,0.0086,-0.0474,0.254982165,0.175601067,-0.000000000,INITIALIZING_BIASES*1a1229fa
#INSPVAA,COM2,0,81.5,FINESTEERING,2008,325360.350,02000000,54e2,14307;2008,325360.350000000,39.14909770652,-77.61911990480,149.8643,-0.0521,0.0086,-0.0474,0.254982165,0.175601067,-0.000000000,INITIALIZING_BIASES*34c8a621
#INSPVAA,COM2,0,81.5,FINESTEERING,2008,325360.400,02000000,54e2,14307;2008,325360.400000000,39.14909770559,-77.61911990460,149.8642,-0.0521,0.0086,-0.0474,0.254982165,0.175601067,-0.000000000,INITIALIZING_BIASES*c7ea2918
#INSPVAA,COM2,0,81.5,FINESTEERING,2008,325360.450,02000000,54e2,14307;2008,325360.450000000,39.14909770465,-77.61911990440,149.8641,-0.0521,0.0086,-0.0474,0.254982165,0.175601067,-0.000000000,INITIALIZING_BIASES*20351bdd
#INSPVAA,COM2,0,81.5,FINESTEERING,2008,325360.500,02000000,54e2,14307;2008,325360.500000000,39.14909770371,-77.61911990420,149.8640,-0.0521,0.0086,-0.0474,0.254982165,0.175601067,-0.000000000,INITIALIZING_BIASES*04458d28
#INSPVAA,COM2,0,81.5,FINESTEERING,2008,325360.550,02000000,54e2,14307;2008,325360.550000000,39.14909770652,-77.61911990480,149.8643,-0.0521,0.0086,-0.0474,0.254982165,0.175601067,-0.000000000,INITIALIZING_BIASES*d6729ae2
#INSPVAA,COM2,0,81.5,FINESTEERING,2008,325360.600,02000000,54e2,14307;2008,325360.600000000,39.14909770558,-77.61911990460,149.8642,-0.0521,0.0086,-0.0474,0.254982165,0.175601067,-0.000000000,INITIALIZING_BIASES*f9810410
#INSPVAA,COM2,0,81.5,FINESTEERING,2008,325360.650,02000000,54e2,14307;2008,325360.650000000,39.14909770465,-77.61911990440,149.8641,-0.0521,0.0086,-0.0474,0.254982165,0.175601067,-0.000000000,INITIALIZING_BIASES*a72c37e9
#INSPVAA,COM2,0,81.5,FINESTEERING,2008,325360.700,02000000,54e2,14307;2008,325360.700000000,39.14909770371,-77.61911990420,149.8640,-0.0521,0.0086,-0.0474,0.254982165,0.175601067,-0.000000000,INITIALIZING_BIASES*10be6c62
#INSPVAA,COM2,0,81.5,FINESTEERING,2008,325360.750,02000000,54e2,14307;2008,325360.750000000,39.14909770652,-77.61911990480,149.8643,-0.0521,0.0086,-0.0474,0.254982165,0.175601067,-0.000000000,INITIALIZING_BIASES*469615e4
#INSPVAA,COM2,0,81.5,FINESTEERING,2008,325360.800,02000000,54e2,14307;2008,325360.800000000,39.14909770558,-77.61911990460,149.8642,-0.0521,0.0086,-0.0474,0.254982165,0.175601067,-0.000000000,INITIALIZING_BIASES*875e62cc
#INSPVAA,COM2,0,81.5,FINESTEERING,2008,325360.850,02000000,54e2,14307;2008,325360.850000000,39.14909770465,-77.61911990440,149.8641,-0.0521,0.0086,-0.0474,0.254982165,0.175601067,-0.000000000,INITIALIZING_BIASES*abc839b6
#INSPVAA,COM2,0,81.5,FINESTEERING,2008,325360.900,02000000,54e2,14307;2008,325360.900000000,39.14909770371,-77.61911990420,149.8640,-0.0521,0.0086,-0.0474,0.254982165,0.175601067,-0.000000000,INITIALIZING_BIASES*a775b228
#INSPVAA,COM2,0,81.5,FINESTEERING,2008,325360.950,02000000,54e2,14307;2008,325360.950000000,39.14909770652,-77.61911990480,149.8643,-0.0521,0.0086,-0.0474,0.254982165,0.175601067,-0.000000000,INITIALIZING_BIASES*450f4a0f
#INSPVAA,COM2,0,81.5,FINESTEERING,2008,325361.000,02000000,54e2,14307;2008,325361.000000000,39.14909770558,-77.61911990460,149.8642,-0.0521,0.0086,-0.0474,0.254982165,0.175601067,-0.000000000,INITIALIZING_BIASES*58505521
#INSPVAA,COM2,0,81.5,FINESTEERING,2008,325361.050,02000000,54e2,14307;2008,325361.050000000,39.14909774360,-77.61911986229,149.8670,0.0502,0.0334,0.0748,0.255545414,0.176076556,-0.000000000,INITIALIZING_BIASES*b9d89ee3
#INSPVAA,COM2,0,82.0,FINESTEERING,2008,325361.100,02000000,54e2,14307;2008,325361.100000000,39.14909774450,-77.61911986152,149.8672,0.0502,0.0334,0.0748,0.255545414,0.176076556,-0.000000000,INITIALIZING_BIASES*573eaf6a
#INSPVAA,COM2,0,82.0,FINESTEERING,2008,325361.150,02000000,54e2,14307;2008,325361.150000000,39.14909774179,-77.61911986383,149.8667,0.0502,0.0334,0.0748,0.255545414,0.176076556,-0.000000000,INITIALIZING_BIASES*e40d6b23
#INSPVAA,COM2,0,82.0,FINESTEERING,2008,325361.200,02000000,54e2,14307;2008,325361.200000000,39.14909774269,-77.61911986306,149.8669,0.0502,0.0334,0.0748,0.255545414,0.176076556,-0.000000000,INITIALIZING_BIASES*86518707
#INSPVAA,COM2,0,82.0,FINESTEERING,2008,325361.250,02000000,54e2,14307;2008,325361.250000000,39.14909774360,-77.61911986229,149.8670,0.0502,0.0334,0.0748,0.255545414,0.176076556,-0.000000000,INITIALIZING_BIASES*56143f03
#INSPVAA,COM2,0,82.0,FINESTEERING,2008,325361.300,02000000,54e2,14307;2008,325361.300000000,39.14909774450,-77.61911986152,149.8672,0.0502,0.0334,0.0748,0.255545414,0.176076556,-0.000000000,INITIALIZING_BIASES*c120ba7a
#INSPVAA,COM2,0,82.0,FINESTEERING,2008,325361.350,02000000,54e2,14307;2008,325361.350000000,39.14909774179,-77.61911986383,149.8667,0.0502,0.0334,0.0748,0.255545414,0.176076556,-0.000000000,INITIALIZING_BIASES*b525e2ac
#INSPVAA,COM2,0,82.0,FINESTEERING,2008,325361.400,02000000,54e2,14307;2008,325361.400000000,39.14909774270,-77.61911986306,149.8669,0.0502,0.0334,0.0748,0.255545414,0.176076556,-0.000000000,INITIALIZING_BIASES*bbd27036
#INSPVAA,COM2,0,82.0,FINESTEERING,2008,325361.450,02000000,54e2,14307;2008,325361.450000000,39.14909774360,-77.61911986229,149.8670,0.0502,0.0334,0.0748,0.255545414,0.176076556,-0.000000000,INITIALIZING_BIASES*e1e3b888
#INSPVAA,COM2,0,82.0,FINESTEERING,2008,325361.500,02000000,54e2,14307;2008,325361.500000000,39.14909774451,-77.61911986152,149.8672,0.0502,0.0334,0.0748,0.255545414,0.176076556,-0.000000000,INITIALIZING_BIASES*bbf57cc7
#INSPVAA,COM2,0,82.0,FINESTEERING,2008,325361.550,02000000,54e2,14307;2008,325361.550000000,39.14909774179,-77.61911986383,149.8667,0.0502,0.0334,0.0748,0.255545414,0.176076556,-0.000000000,INITIALIZING_BIASES*5e744b3f
#INSPVAA,COM2,0,82.0,FINESTEERING,2008,325361.600,02000000,54e2,14307;2008,325361.600000000,39.14909774270,-77.61911986306,149.8669,0.0502,0.0334,0.0748,0.255545414,0.176076556,-0.000000000,INITIALIZING_BIASES*ecbefd0b
#INSPVAA,COM2,0,82.0,FINESTEERING,2008,325361.650,02000000,54e2,14307;2008,325361.650000000,39.14909774360,-77.61911986229,149.8670,0.0502,0.0334,0.0748,0.255545414,0.176076556,-0.000000000,INITIALIZING_BIASES*756dd91c
#INSPVAA,COM2,0,82.0,FINESTEERING,2008,325361.700,02000000,54e2,14307;2008,325361.700000000,39.14909774451,-77.61911986152,149.8672,0.0502,0.0334,0.0748,0.255545414,0.176076556,-0.000000000,INITIALIZING_BIASES*1e814ace
#INSPVAA,COM2,0,82.0,FINESTEERING,2008,325361.750,02000000,54e2,14307;2008,325361.750000000,39.14909774179,-77.61911986383,149.8667,0.0502,0.0334,0.0748,0.255545414,0.176076556,-0.000000000,INITIALIZING_BIASES*c0f4dcf4
#INSPVAA,COM2,0,82.0,FINESTEERING,2008,325361.800,02000000,54e2,14307;2008,325361.800000000,39.14909774270,-77.61911986306,149.8669,0.0502,0.0334,0.0748,0.255545414,0.176076556,-0.000000000,INITIALIZING_BIASES*f8246635
#INSPVAA,COM2,0,82.0,FINESTEERING,2008,325361.850,02000000,54e2,14307;2008,325361.850000000,39.14909774360,-77.61911986229,149.8670,0.0502,0.0334,0.0748,0.255545414,0.176076556,-0.000000000,INITIALIZING_BIASES*b27b531e
#INSPVAA,COM2,0,82.0,FINESTEERING,2008,325361.900,02000000,54e2,14307;2008,325361.900000000,39.14909774451,-77.61911986152,149.8672,0.0502,0.0334,0.0748,0.255545414,0.176076556,-0.000000000,INITIALIZING_BIASES*f064e672
#INSPVAA,COM2,0,82.0,FINESTEERING,2008,325361.950,02000000,54e2,14307;2008,325361.950000000,39.14909774179,-77.61911986383,149.8667,0.0502,0.0334,0.0748,0.255545414,0.176076556,-0.000000000,INITIALIZING_BIASES*d39d75d2
#INSPVAA,COM2,0,82.0,FINESTEERING,2008,325362.000,02000000,54e2,14307;2008,325362.000000000,39.14909774270,-77.61911986306,149.8669,0.0502,0.0334,0.0748,0.255545414,0.176076556,-0.000000000,INITIALIZING_BIASES*5512e854
#INSPVAA,COM2,0,82.0,FINESTEERING,2008,325362.050,02000000,54e2,14307;2008,325362.050000000,39.14909795123,-77.61912009533,149.8775,0.0502,0.0223,0.0542,0.257434548,0.174451450,-0.000000000,INITIALIZING_BIASES*b87b8dd4
#INSPVAA,COM2,0,82.5,FINESTEERING,2008,325362.100,02000000,54e2,14307;2008,325362.100000000,39.14909795213,-77.61912009482,149.8777,0.0502,0.0223,0.0542,0.257434548,0.174451450,-0.000000000,INITIALIZING_BIASES*9da9f7b1
#INSPVAA,COM2,0,82.5,FINESTEERING,2008,325362.150,02000000,54e2,14307;2008,325362.150000000,39.14909794942,-77.61912009636,149.8773,0.0502,0.0223,0.0542,0.257434548,0.174451450,-0.000000000,INITIALIZING_BIASES*62941a5b
#INSPVAA,COM2,0,82.5,FINESTEERING,2008,325362.200,02000000,54e2,14307;2008,325362.200000000,39.14909795032,-77.61912009585,149.8774,0.0502,0.0223,0.0542,0.257434548,0.174451450,-0.000000000,INITIALIZING_BIASES*e05d77eb
#INSPVAA,COM2,0,82.5,FINESTEERING,2008,325362.250,02000000,54e2,14307;2008,325362.250000000,39.14909795123,-77.61912009533,149.8775,0.0502,0.0223,0.0542,0.257434548,0.174451450,-0.000000000,INITIALIZING_BIASES*457c655d
#INSPVAA,COM2,0,82.5,FINESTEERING,2008,325362.300,02000000,54e2,14307;2008,325362.300000000,39.14909795213,-77.61912009482,149.8777,0.0502,0.0223,0.0542,0.257434548,0.174451450,-0.000000000,INITIALIZING_BIASES*a1e05459
#INSPVAA,COM2,0,82.5,FINESTEERING,2008,325362.350,02000000,54e2,14307;2008,325362.350000000,39.14909794942,-77.61912009636,149.8773,0.0502,0.0223,0.0542,0.257434548,0.174451450,-0.000000000,INITIALIZING_BIASES*c082d899
#INSPVAA,COM2,0,82.5,FINESTEERING,2008,325362.400,02000000,54e2,14307;2008,325362.400000000,39.14909795032,-77.61912009585,149.8774,0.0502,0.0223,0.0542,0.257434548,0.174451450,-0.000000000,INITIALIZING_BIASES*fbaa7074
#INSPVAA,COM2,0,82.5,FINESTEERING,2008,325362.450,02000000,54e2,14307;2008,325362.450000000,39.14909795123,-77.61912009533,149.8775,0.0502,0.0223,0.0542,0.257434548,0.174451450,-0.000000000,INITIALIZING_BIASES*c859b033
#INSPVAA,COM2,0,82.5,FINESTEERING,2008,325362.500,02000000,54e2,14307;2008,325362.500000000,39.14909795213,-77.61912009481,149.8777,0.0502,0.0223,0.0542,0.257434548,0.174451450,-0.000000000,INITIALIZING_BIASES*5859d4b7
#INSPVAA,COM2,0,82.5,FINESTEERING,2008,325362.550,02000000,54e2,14307;2008,325362.550000000,39.14909794942,-77.61912009636,149.8773,0.0502,0.0223,0.0542,0.257434548,0.174451450,-0.000000000,INITIALIZING_BIASES*c55d96ea
#INSPVAA,COM2,0,82.5,FINESTEERING,2008,325362.600,02000000,54e2,14307;2008,325362.600000000,39.14909795032,-77.61912009585,149.8774,0.0502,0.0223,0.0542,0.257434548,0.174451450,-0.000000000,INITIALIZING_BIASES*acab900c
#INSPVAA,COM2,0,82.5,FINESTEERING,2008,325362.650,02000000,54e2,14307;2008,325362.650000000,39.14909795123,-77.61912009533,149.8775,0.0502,0.0223,0.0542,0.257434548,0.174451450,-0.000000000,INITIALIZING_BIASES*fa632ef0
#INSPVAA,COM2,0,82.5,FINESTEERING,2008,325362.700,02000000,54e2,14307;2008,325362.700000000,39.14909795213,-77.61912009481,149.8777,0.0502,0.0223,0.0542,0.257434548,0.174451450,-0.000000000,INITIALIZING_BIASES*cf2ad664
#INSPVAA,COM2,0,82.5,FINESTEERING,2008,325362.750,02000000,54e2,14307;2008,325362.750000000,39.14909794942,-77.61912009636,149.8773,0.0502,0.0223,0.0542,0.257434548,0.174451450,-0.000000000,INITIALIZING_BIASES*66ef0104
#INSPVAA,COM2,0,82.5,FINESTEERING,2008,325362.800,02000000,54e2,14307;2008,325362.800000000,39.14909795032,-77.61912009585,149.8774,0.0502,0.0223,0.0542,0.257434548,0.174451450,-0.000000000,INITIALIZING_BIASES*03cc0632
#INSPVAA,COM2,0,82.5,FINESTEERING,2008,325362.850,02000000,54e2,14307;2008,325362.850000000,39.14909795123,-77.61912009533,149.8775,0.0502,0.0223,0.0542,0.257434548,0.174451450,-0.000000000,INITIALIZING_BIASES*ea5a588e
#INSPVAA,COM2,0,82.5,FINESTEERING,2008,325362.900,02000000,54e2,14307;2008,325362.900000000,39.14909795213,-77.61912009481,149.8777,0.0502,0.0223,0.0542,0.257434548,0.174451450,-0.000000000,INITIALIZING_BIASES*ba36e56a
#INSPVAA,COM2,0,82.5,FINESTEERING,2008,325362.950,02000000,54e2,14307;2008,325362.950000000,39.14909794942,-77.61912009636,149.8773,0.0502,0.0223,0.0542,0.257434548,0.174451450,-0.000000000,INITIALIZING_BIASES*7b4eadbf
#INSPVAA,COM2,0,82.5,FINESTEERING,2008,325363.000,02000000,54e2,14307;2008,325363.000000000,39.14909795032,-77.61912009585,149.8774,0.0502,0.0223,0.0542,0.257434548,0.174451450,-0.000000000,INITIALIZING_BIASES*fdfc3dae
#INSPVAA,COM2,0,81.5,FINESTEERING,2008,325363.050,02000000,54e2,14307;2008,325363.050000000,39.14909801411,-77.61912011860,149.9017,0.0369,-0.0003,-0.0103,0.255839644,0.174755466,-0.000000000,INITIALIZING_BIASES*ef8767af
#INSPVAA,COM2,0,81.5,FINESTEERING,2008,325363.100,02000000,54e2,14307;2008,325363.100000000,39.14909801477,-77.61912011861,149.9017,0.0369,-0.0003,-0.0103,0.255839644,0.174755466,-0.000000000,INITIALIZING_BIASES*e4d0accb
#INSPVAA,COM2,0,81.5,FINESTEERING,2008,325363.150,02000000,54e2,14307;2008,325363.150000000,39.14909801278,-77.61912011859,149.9018,0.0369,-0.0003,-0.0103,0.255839644,0.174755466,-0.000000000,INITIALIZING_BIASES*d82392fd
#INSPVAA,COM2,0,81.5,FINESTEERING,2008,325363.200,02000000,54e2,14307;2008,325363.200000000,39.14909801345,-77.61912011860,149.9017,0.0369,-0.0003,-0.0103,0.255839644,0.174755466,-0.000000000,INITIALIZING_BIASES*b971a291
#INSPVAA,COM2,0,81.5,FINESTEERING,2008,325363.250,02000000,54e2,14307;2008,325363.250000000,39.14909801411,-77.61912011860,149.9017,0.0369,-0.0003,-0.0103,0.255839644,0.174755466,-0.000000000,INITIALIZING_BIASES*88636c29
#INSPVAA,COM2,0,81.5,FINESTEERING,2008,325363.300,02000000,54e2,14307;2008,325363.300000000,39.14909801478,-77.61912011861,149.9017,0.0369,-0.0003,-0.0103,0.255839644,0.174755466,-0.000000000,INITIALIZING_BIASES*a6cf321d
#INSPVAA,COM2,0,81.5,FINESTEERING,2008,325363.350,02000000,54e2,14307;2008,325363.350000000,39.14909801278,-77.61912011859,149.9018,0.0369,-0.0003,-0.0103,0.255839644,0.174755466,-0.000000000,INITIALIZING_BIASES*58cd3689
#INSPVAA,COM2,0,81.5,FINESTEERING,2008,325363.400,02000000,54e2,14307;2008,325363.400000000,39.14909801345,-77.61912011860,149.9017,0.0369,-0.0003,-0.0103,0.255839644,0.174755466,-0.000000000,INITIALIZING_BIASES*72fd4d75
#INSPVAA,COM2,0,81.5,FINESTEERING,2008,325363.450,02000000,54e2,14307;2008,325363.450000000,39.14909801411,-77.61912011860,149.9017,0.0369,-0.0003,-0.0103,0.255839644,0.174755466,-0.000000000,INITIALIZING_BIASES*91509612
#INSPVAA,COM2,0,81.5,FINESTEERING,2008,325363.500,02000000,54e2,14307;2008,325363.500000000,39.14909801478,-77.61912011861,149.9017,0.0369,-0.0003,-0.0103,0.255839644,0.174755466,-0.000000000,INITIALIZING_BIASES*fc17b7ec
#INSPVAA,COM2,0,81.5,FINESTEERING,2008,325363.550,02000000,54e2,14307;2008,325363.550000000,39.14909801278,-77.61912011859,149.9018,0.0369,-0.0003,-0.0103,0.255839644,0.174755466,-0.000000000,INITIALIZING_BIASES*be41dfaf
#INSPVAA,COM2,0,81.5,FINESTEERING,2008,325363.600,02000000,54e2,14307;2008,325363.600000000,39.14909801345,-77.61912011860,149.9017,0.0369,-0.0003,-0.0103,0.255839644,0.174755466,-0.000000000,INITIALIZING_BIASES*aad74a7d
#INSPVAA,COM2,0,81.5,FINESTEERING,2008,325363.650,02000000,54e2,14307;2008,325363.650000000,39.14909801411,-77.61912011860,149.9017,0.0369,-0.0003,-0.0103,0.255839644,0.174755466,-0.000000000,INITIALIZING_BIASES*334ed49a
#INSPVAA,COM2,0,81.5,FINESTEERING,2008,325363.700,02000000,54e2,14307;2008,325363.700000000,39.14909801478,-77.61912011861,149.9017,0.0369,-0.0003,-0.0103,0.255839644,0.174755466,-0.000000000,INITIALIZING_BIASES*38a5b226
#INSPVAA,COM2,0,81.5,FINESTEERING,2008,325363.750,02000000,54e2,14307;2008,325363.750000000,39.14909801278,-77.61912011859,149.9018,0.0369,-0.0003,-0.0103,0.255839644,0.174755466,-0.000000000,INITIALIZING_BIASES*f0354a9a
#INSPVAA,COM2,0,81.5,FINESTEERING,2008,325363.800,02000000,54e2,14307;2008,325363.800000000,39.14909801345,-77.61912011860,149.9017,0.0369,-0.0003,-0.0103,0.255839644,0.174755466,-0.000000000,INITIALIZING_BIASES*49a88d5f
#INSPVAA,COM2,0,81.5,FINESTEERING,2008,325363.850,02000000,54e2,14307;2008,325363.850000000,39.14909801411,-77.61912011860,149.9017,0.0369,-0.0003,-0.0103,0.255839644,0.174755466,-0.000000000,INITIALIZING_BIASES*53a8d2d1
#INSPVAA,COM2,0,81.5,FINESTEERING,2008,325363.900,02000000,54e2,14307;2008,325363.900000000,39.14909801478,-77.61912011861,149.9017,0.0369,-0.0003,-0.0103,0.255839644,0.174755466,-0.000000000,INITIALIZING_BIASES*8a514bcf
#INSPVAA,COM2,0,81.5,FINESTEERING,2008,325363.950,02000000,54e2,14307;2008,325363.950000000,39.14909801278,-77.61912011859,149.9018,0.0369,-0.0003,-0.0103,0.255839644,0.174755466,-0.000000000,INITIALIZING_BIASES*06b2fa4e
#INSPVAA,COM2,0,81.5,FINESTEERING,2008,325364.000,02000000,54e2,14307;2008,325364.000000000,39.14909801345,-77.61912011860,149.9017,0.0369,-0.0003,-0.0103,0.255839644,0.174755466,-0.000000000,INITIALIZING_BIASES*032d8d03
#INSPVAA,COM2,0,81.5,FINESTEERING,2008,325364.050,02000000,54e2,14307;2008,325364.050000000,39.14909816035,-77.61912008928,149.9340,-0.0274,0.0026,0.0134,0.247747171,0.172972118,-0.000000000,INITIALIZING_BIASES*74127b72
#INSPVAA,COM2,0,82.0,FINESTEERING,2008,325364.100,02000000,54e2,14307;2008,325364.100000000,39.14909815985,-77.61912008923,149.9341,-0.0274,0.0026,0.0134,0.247747171,0.172972118,-0.000000000,INITIALIZING_BIASES*c90e3f8d
#INSPVAA,COM2,0,82.0,FINESTEERING,2008,325364.150,02000000,54e2,14307;2008,325364.150000000,39.14909816133,-77.61912008940,149.9340,-0.0274,0.0026,0.0134,0.247747171,0.172972118,-0.000000000,INITIALIZING_BIASES*afe04dfe
#INSPVAA,COM2,0,82.0,FINESTEERING,2008,325364.200,02000000,54e2,14307;2008,325364.200000000,39.14909816084,-77.61912008934,149.9340,-0.0274,0.0026,0.0134,0.247747171,0.172972118,-0.000000000,INITIALIZING_BIASES*c52d2318
#INSPVAA,COM2,0,82.0,FINESTEERING,2008,325364.250,02000000,54e2,14307;2008,325364.250000000,39.14909816035,-77.61912008928,149.9340,-0.0274,0.0026,0.0134,0.247747171,0.172972118,-0.000000000,INITIALIZING_BIASES*51f39908
#INSPVAA,COM2,0,82.0,FINESTEERING,2008,325364.300,02000000,54e2,14307;2008,325364.300000000,39.14909815985,-77.61912008923,149.9341,-0.0274,0.0026,0.0134,0.247747171,0.172972118,-0.000000000,INITIALIZING_BIASES*6fd028be
#INSPVAA,COM2,0,82.0,FINESTEERING,2008,325364.350,02000000,54e2,14307;2008,325364.350000000,39.14909816133,-77.61912008940,149.9340,-0.0274,0.0026,0.0134,0.247747171,0.172972118,-0.000000000,INITIALIZING_BIASES*e2bd4768
#INSPVAA,COM2,0,82.0,FINESTEERING,2008,325364.400,02000000,54e2,14307;2008,325364.400000000,39.14909816084,-77.61912008934,149.9340,-0.0274,0.0026,0.0134,0.247747171,0.172972118,-0.000000000,INITIALIZING_BIASES*9a9cafc7
#INSPVAA,COM2,0,82.0,FINESTEERING,2008,325364.450,02000000,54e2,14307;2008,325364.450000000,39.14909816035,-77.61912008928,149.9340,-0.0274,0.0026,0.0134,0.247747171,0.172972118,-0.000000000,INITIALIZING_BIASES*50d5c6f1
#INSPVAA,COM2,0,82.0,FINESTEERING,2008,325364.500,02000000,54e2,14307;2008,325364.500000000,39.14909815985,-77.61912008923,149.9341,-0.0274,0.0026,0.0134,0.247747171,0.172972118,-0.000000000,INITIALIZING_BIASES*8fcce1eb
#INSPVAA,COM2,0,82.0,FINESTEERING,2008,325364.550,02000000,54e2,14307;2008,325364.550000000,39.14909816133,-77.61912008940,149.9340,-0.0274,0.0026,0.0134,0.247747171,0.172972118,-0.000000000,INITIALIZING_BIASES*dce18fa8
#INSPVAA,COM2,0,82.0,FINESTEERING,2008,325364.600,02000000,54e2,14307;2008,325364.600000000,39.14909816084,-77.61912008934,149.9340,-0.0274,0.0026,0.0134,0.247747171,0.172972118,-0.000000000,INITIALIZING_BIASES*f4f04535
#INSPVAA,COM2,0,82.0,FINESTEERING,2008,325364.650,02000000,54e2,14307;2008,325364.650000000,39.14909816034,-77.61912008928,149.9340,-0.0274,0.0026,0.0134,0.247747171,0.172972118,-0.000000000,INITIALIZING_BIASES*d3b4d6c3
#INSPVAA,COM2,0,82.0,FINESTEERING,2008,325364.700,02000000,54e2,14307;2008,325364.700000000,39.14909815985,-77.61912008923,149.9341,-0.0274,0.0026,0.0134,0.247747171,0.172972118,-0.000000000,INITIALIZING_BIASES*fc2504a4
#INSPVAA,COM2,0,82.0,FINESTEERING,2008,325364.750,02000000,54e2,14307;2008,325364.750000000,39.14909816133,-77.61912008940,149.9340,-0.0274,0.0026,0.0134,0.247747171,0.172972118,-0.000000000,INITIALIZING_BIASES*c6908b0f
#INSPVAA,COM2,0,82.0,FINESTEERING,2008,325364.800,02000000,54e2,14307;2008,325364.800000000,39.14909816084,-77.61912008934,149.9340,-0.0274,0.0026,0.0134,0.247747171,0.172972118,-0.000000000,INITIALIZING_BIASES*ae684676
#INSPVAA,COM2,0,82.0,FINESTEERING,2008,325364.850,02000000,54e2,14307;2008,325364.850000000,39.14909816034,-77.61912008928,149.9340,-0.0274,0.0026,0.0134,0.247747171,0.172972118,-0.000000000,INITIALIZING_BIASES*0cdf84fa
#INSPVAA,COM2,0,82.0,FINESTEERING,2008,325364.900,02000000,54e2,14307;2008,325364.900000000,39.14909815985,-77.61912008923,149.9341,-0.0274,0.0026,0.0134,0.247747171,0.172972118,-0.000000000,INITIALIZING_BIASES*29115956
#INSPVAA,COM2,0,82.0,FINESTEERING,2008,325364.950,02000000,54e2,14307;2008,325364.950000000,39.14909816133,-77.61912008940,149.9340,-0.0274,0.0026,0.0134,0.247747171,0.172972118,-0.000000000,INITIALIZING_BIASES*db36b2ab
#INSPVAA,COM2,0,82.0,FINESTEERING,2008,325365.000,02000000,54e2,14307;2008,325365.000000000,39.14909816084,-77.61912008934,149.9340,-0.0274,0.0026,0.0134,0.247747171,0.172972118,-0.000000000,INITIALIZING_BIASES*6df7c71d
#INSPVAA,COM2,0,81.5,FINESTEERING,2008,325365.050,02000000,54e2,14307;2008,325365.050000000,39.14909816727,-77.61912027120,149.9579,-0.0740,-0.0118,-0.0351,0.250506460,0.173702667,-0.000000000,INITIALIZING_BIASES*5df6cb0f
#INSPVAA,COM2,0,81.5,FINESTEERING,2008,325365.100,02000000,54e2,14307;2008,325365.100000000,39.14909816594,-77.61912027147,149.9579,-0.0740,-0.0118,-0.0351,0.250506460,0.173702667,-0.000000000,INITIALIZING_BIASES*a34f4ca0
#INSPVAA,COM2,0,81.5,FINESTEERING,2008,325365.150,02000000,54e2,14307;2008,325365.150000000,39.14909816994,-77.61912027065,149.9581,-0.0740,-0.0118,-0.0351,0.250506460,0.173702667,-0.000000000,INITIALIZING_BIASES*7f0e6ccd
#INSPVAA,COM2,0,81.5,FINESTEERING,2008,325365.200,02000000,54e2,14307;2008,325365.200000000,39.14909816860,-77.61912027092,149.9580,-0.0740,-0.0118,-0.0351,0.250506460,0.173702667,-0.000000000,INITIALIZING_BIASES*b3801179
#INSPVAA,COM2,0,81.5,FINESTEERING,2008,325365.250,02000000,54e2,14307;2008,325365.250000000,39.14909816727,-77.61912027120,149.9579,-0.0740,-0.0118,-0.0351,0.250506460,0.173702667,-0.000000000,INITIALIZING_BIASES*eadc1649
#INSPVAA,COM2,0,81.5,FINESTEERING,2008,325365.300,02000000,54e2,14307;2008,325365.300000000,39.14909816594,-77.61912027147,149.9579,-0.0740,-0.0118,-0.0351,0.250506460,0.173702667,-0.000000000,INITIALIZING_BIASES*fdeabfbc
#INSPVAA,COM2,0,81.5,FINESTEERING,2008,325365.350,02000000,54e2,14307;2008,325365.350000000,39.14909816994,-77.61912027065,149.9581,-0.0740,-0.0118,-0.0351,0.250506460,0.173702667,-0.000000000,INITIALIZING_BIASES*42927b49
#INSPVAA,COM2,0,81.5,FINESTEERING,2008,325365.400,02000000,54e2,14307;2008,325365.400000000,39.14909816860,-77.61912027092,149.9580,-0.0740,-0.0118,-0.0351,0.250506460,0.173702667,-0.000000000,INITIALIZING_BIASES*22d99711
#INSPVAA,COM2,0,81.5,FINESTEERING,2008,325365.450,02000000,54e2,14307;2008,325365.450000000,39.14909816727,-77.61912027120,149.9579,-0.0740,-0.0118,-0.0351,0.250506460,0.173702667,-0.000000000,INITIALIZING_BIASES*8bc6efe8
#INSPVAA,COM2,0,81.5,FINESTEERING,2008,325365.500,02000000,54e2,14307;2008,325365.500000000,39.14909816594,-77.61912027147,149.9579,-0.0740,-0.0118,-0.0351,0.250506460,0.173702667,-0.000000000,INITIALIZING_BIASES*5a4cc170
#INSPVAA,COM2,0,81.5,FINESTEERING,2008,325365.550,02000000,54e2,14307;2008,325365.550000000,39.14909816994,-77.61912027065,149.9581,-0.0740,-0.0118,-0.0351,0.250506460,0.173702667,-0.000000000,INITIALIZING_BIASES*50a52640
#INSPVAA,COM2,0,81.5,FINESTEERING,2008,325365.600,02000000,54e2,14307;2008,325365.600000000,39.14909816860,-77.61912027092,149.9580,-0.0740,-0.0118,-0.0351,0.250506460,0.173702667,-0.000000000,INITIALIZING_BIASES*99f2c862
#INSPVAA,COM2,0,81.5,FINESTEERING,2008,325365.650,02000000,54e2,14307;2008,325365.650000000,39.14909816727,-77.61912027120,149.9579,-0.0740,-0.0118,-0.0351,0.250506460,0.173702667,-0.000000000,INITIALIZING_BIASES*f9ccdbe7
#INSPVAA,COM2,0,81.5,FINESTEERING,2008,325365.700,02000000,54e2,14307;2008,325365.700000000,39.14909816594,-77.61912027147,149.9579,-0.0740,-0.0118,-0.0351,0.250506460,0.173702667,-0.000000000,INITIALIZING_BIASES*5eb55bbe
#INSPVAA,COM2,0,81.5,FINESTEERING,2008,325365.750,02000000,54e2,14307;2008,325365.750000000,39.14909816994,-77.61912027065,149.9581,-0.0740,-0.0118,-0.0351,0.250506460,0.173702667,-0.000000000,INITIALIZING_BIASES*61f58b66
#INSPVAA,COM2,0,81.5,FINESTEERING,2008,325365.800,02000000,54e2,14307;2008,325365.800000000,39.14909816860,-77.61912027093,149.9580,-0.0740,-0.0118,-0.0351,0.250506460,0.173702667,-0.000000000,INITIALIZING_BIASES*0b796cc2
#INSPVAA,COM2,0,81.5,FINESTEERING,2008,325365.850,02000000,54e2,14307;2008,325365.850000000,39.14909816727,-77.61912027120,149.9579,-0.0740,-0.0118,-0.0351,0.250506460,0.173702667,-0.000000000,INITIALIZING_BIASES*00d37e05
#INSPVAA,COM2,0,81.5,FINESTEERING,2008,325365.900,02000000,54e2,14307;2008,325365.900000000,39.14909816594,-77.61912027147,149.9579,-0.0740,-0.0118,-0.0351,0.250506460,0.173702667,-0.000000000,INITIALIZING_BIASES*98e8dcc6
#INSPVAA,COM2,0,81.5,FINESTEERING,2008,325365.950,02000000,54e2,14307;2008,325365.950000000,39.14909816993,-77.61912027065,149.9581,-0.0740,-0.0118,-0.0351,0.250506460,0.173702667,-0.000000000,INITIALIZING_BIASES*6ea2af23
#INSPVAA,COM2,0,81.5,FINESTEERING,2008,325366.000,02000000,54e2,14307;2008,325366.000000000,39.14909816860,-77.61912027093,149.9580,-0.0740,-0.0118,-0.0351,0.250506460,0.173702667,-0.000000000,INITIALIZING_BIASES*e0fe16fb
#INSPVAA,COM2,0,81.5,FINESTEERING,2008,325366.050,02000000,54e2,14307;2008,325366.050000000,39.14909832868,-77.61912038048,149.9553,0.0318,0.0147,0.0345,0.255718963,0.179763468,-0.000000000,INITIALIZING_BIASES*91107c0d
#INSPVAA,COM2,0,81.5,FINESTEERING,2008,325366.100,02000000,54e2,14307;2008,325366.100000000,39.14909832926,-77.61912038014,149.9554,0.0318,0.0147,0.0345,0.255718963,0.179763468,-0.000000000,INITIALIZING_BIASES*a277be1d
#INSPVAA,COM2,0,81.5,FINESTEERING,2008,325366.150,02000000,54e2,14307;2008,325366.150000000,39.14909832754,-77.61912038116,149.9552,0.0318,0.0147,0.0345,0.255718963,0.179763468,-0.000000000,INITIALIZING_BIASES*e259fa7d
#INSPVAA,COM2,0,81.5,FINESTEERING,2008,325366.200,02000000,54e2,14307;2008,325366.200000000,39.14909832811,-77.61912038082,149.9552,0.0318,0.0147,0.0345,0.255718963,0.179763468,-0.000000000,INITIALIZING_BIASES*b350d1f1
#INSPVAA,COM2,0,81.5,FINESTEERING,2008,325366.250,02000000,54e2,14307;2008,325366.250000000,39.14909832868,-77.61912038048,149.9553,0.0318,0.0147,0.0345,0.255718963,0.179763468,-0.000000000,INITIALIZING_BIASES*883ccd13
#INSPVAA,COM2,0,81.5,FINESTEERING,2008,325366.300,02000000,54e2,14307;2008,325366.300000000,39.14909832926,-77.61912038014,149.9554,0.0318,0.0147,0.0345,0.255718963,0.179763468,-0.000000000,INITIALIZING_BIASES*465497b9
#INSPVAA,COM2,0,81.5,FINESTEERING,2008,325366.350,02000000,54e2,14307;2008,325366.350000000,39.14909832754,-77.61912038116,149.9552,0.0318,0.0147,0.0345,0.255718963,0.179763468,-0.000000000,INITIALIZING_BIASES*f2c2c6f8
#INSPVAA,COM2,0,81.5,FINESTEERING,2008,325366.400,02000000,54e2,14307;2008,325366.400000000,39.14909832811,-77.61912038082,149.9552,0.0318,0.0147,0.0345,0.255718963,0.179763468,-0.000000000,INITIALIZING_BIASES*6aa4a694
#INSPVAA,COM2,0,81.5,FINESTEERING,2008,325366.450,02000000,54e2,14307;2008,325366.450000000,39.14909832868,-77.61912038048,149.9553,0.0318,0.0147,0.0345,0.255718963,0.179763468,-0.000000000,INITIALIZING_BIASES*2aec70fc
#INSPVAA,COM2,0,81.5,FINESTEERING,2008,325366.500,02000000,54e2,14307;2008,325366.500000000,39.14909832926,-77.61912038014,149.9554,0.0318,0.0147,0.0345,0.255718963,0.179763468,-0.000000000,INITIALIZING_BIASES*8ae7856a
#INSPVAA,COM2,0,81.5,FINESTEERING,2008,325366.550,02000000,54e2,14307;2008,325366.550000000,39.14909832754,-77.61912038116,149.9552,0.0318,0.0147,0.0345,0.255718963,0.179763468,-0.000000000,INITIALIZING_BIASES*bdca4fb3
#INSPVAA,COM2,0,81.5,FINESTEERING,2008,325366.600,02000000,54e2,14307;2008,325366.600000000,39.14909832811,-77.61912038082,149.9552,0.0318,0.0147,0.0345,0.255718963,0.179763468,-0.000000000,INITIALIZING_BIASES*39e22b97
#INSPVAA,COM2,0,81.5,FINESTEERING,2008,325366.650,02000000,54e2,14307;2008,325366.650000000,39.14909832868,-77.61912038048,149.9553,0.0318,0.0147,0.0345,0.255718963,0.179763468,-0.000000000,INITIALIZING_BIASES*354acc4e
#INSPVAA,COM2,0,81.5,FINESTEERING,2008,325366.700,02000000,54e2,14307;2008,325366.700000000,39.14909832926,-77.61912038014,149.9554,0.0318,0.0147,0.0345,0.255718963,0.179763468,-0.000000000,INITIALIZING_BIASES*cdf61738
#INSPVAA,COM2,0,81.5,FINESTEERING,2008,325366.750,02000000,54e2,14307;2008,325366.750000000,39.14909832754,-77.61912038116,149.9552,0.0318,0.0147,0.0345,0.255718963,0.179763468,-0.000000000,INITIALIZING_BIASES*f071c78c
#INSPVAA,COM2,0,81.5,FINESTEERING,2008,325366.800,02000000,54e2,14307;2008,325366.800000000,39.14909832811,-77.61912038082,149.9552,0.0318,0.0147,0.0345,0.255718963,0.179763468,-0.000000000,INITIALIZING_BIASES*1c28e79d
#INSPVAA,COM2,0,81.5,FINESTEERING,2008,325366.850,02000000,54e2,14307;2008,325366.850000000,39.14909832868,-77.61912038048,149.9553,0.0318,0.0147,0.0345,0.255718963,0.179763468,-0.000000000,INITIALIZING_BIASES*1a116018
#INSPVAA,COM2,0,81.5,FINESTEERING,2008,325366.900,02000000,54e2,14307;2008,325366.900000000,39.14909832926,-77.61912038014,149.9554,0.0318,0.0147,0.0345,0.255718963,0.179763468,-0.000000000,INITIALIZING_BIASES*890f5fe2
#INSPVAA,COM2,0,81.5,FINESTEERING,2008,325366.950,02000000,54e2,14307;2008,325366.950000000,39.14909832754,-77.61912038116,149.9552,0.0318,0.0147,0.0345,0.255718963,0.179763468,-0.000000000,INITIALIZING_BIASES*dfd648e6
#INSPVAA,COM2,0,81.5,FINESTEERING,2008,325367.000,02000000,54e2,14307;2008,325367.000000000,39.14909832811,-77.61912038082,149.9552,0.0318,0.0147,0.0345,0.255718963,0.179763468,-0.000000000,INITIALIZING_BIASES*571b06b9
#INSPVAA,COM2,0,81.5,FINESTEERING,2008,325367.050,02000000,54e2,14307;2008,325367.050000000,39.14909839798,-77.61912036688,149.9586,0.0466,0.0214,0.0538,0.251293846,0.179837779,-0.000000000,INITIALIZING_BIASES*4d727629
#INSPVAA,COM2,0,82.0,FINESTEERING,2008,325367.100,02000000,54e2,14307;2008,325367.100000000,39.14909839882,-77.61912036639,149.9587,0.0466,0.0214,0.0538,0.251293846,0.179837779,-0.000000000,INITIALIZING_BIASES*c87763b8
#INSPVAA,COM2,0,82.0,FINESTEERING,2008,325367.150,02000000,54e2,14307;2008,325367.150000000,39.14909839630,-77.61912036787,149.9583,0.0466,0.0214,0.0538,0.251293846,0.179837779,-0.000000000,INITIALIZING_BIASES*63c238f6
#INSPVAA,COM2,0,82.0,FINESTEERING,2008,325367.200,02000000,54e2,14307;2008,325367.200000000,39.14909839714,-77.61912036738,149.9584,0.0466,0.0214,0.0538,0.251293846,0.179837779,-0.000000000,INITIALIZING_BIASES*e094ead0
#INSPVAA,COM2,0,82.0,FINESTEERING,2008,325367.250,02000000,54e2,14307;2008,325367.250000000,39.14909839798,-77.61912036688,149.9586,0.0466,0.0214,0.0538,0.251293846,0.179837779,-0.000000000,INITIALIZING_BIASES*8a3226d5
#INSPVAA,COM2,0,82.0,FINESTEERING,2008,325367.300,02000000,54e2,14307;2008,325367.300000000,39.14909839882,-77.61912036639,149.9587,0.0466,0.0214,0.0538,0.251293846,0.179837779,-0.000000000,INITIALIZING_BIASES*21fa2269
#INSPVAA,COM2,0,82.0,FINESTEERING,2008,325367.350,02000000,54e2,14307;2008,325367.350000000,39.14909839630,-77.61912036787,149.9583,0.0466,0.0214,0.0538,0.251293846,0.179837779,-0.000000000,INITIALIZING_BIASES*24d0ab56
#INSPVAA,COM2,0,82.0,FINESTEERING,2008,325367.400,02000000,54e2,14307;2008,325367.400000000,39.14909839714,-77.61912036738,149.9584,0.0466,0.0214,0.0538,0.251293846,0.179837779,-0.000000000,INITIALIZING_BIASES*47f4d2a9
#INSPVAA,COM2,0,82.0,FINESTEERING,2008,325367.450,02000000,54e2,14307;2008,325367.450000000,39.14909839798,-77.61912036688,149.9586,0.0466,0.0214,0.0538,0.251293846,0.179837779,-0.000000000,INITIALIZING_BIASES*0f790f35
#INSPVAA,COM2,0,82.0,FINESTEERING,2008,325367.500,02000000,54e2,14307;2008,325367.500000000,39.14909839882,-77.61912036639,149.9587,0.0466,0.0214,0.0538,0.251293846,0.179837779,-0.000000000,INITIALIZING_BIASES*b3f489d7
#INSPVAA,COM2,0,82.0,FINESTEERING,2008,325367.550,02000000,54e2,14307;2008,325367.550000000,39.14909839630,-77.61912036787,149.9583,0.0466,0.0214,0.0538,0.251293846,0.179837779,-0.000000000,INITIALIZING_BIASES*40636fb4
#INSPVAA,COM2,0,82.0,FINESTEERING,2008,325367.600,02000000,54e2,14307;2008,325367.600000000,39.14909839714,-77.61912036738,149.9584,0.0466,0.0214,0.0538,0.251293846,0.179837779,-0.000000000,INITIALIZING_BIASES*5a56f194
#INSPVAA,COM2,0,82.0,FINESTEERING,2008,325367.650,02000000,54e2,14307;2008,325367.650000000,39.14909839798,-77.61912036688,149.9586,0.0466,0.0214,0.0538,0.251293846,0.179837779,-0.000000000,INITIALIZING_BIASES*9e2bb0e4
#INSPVAA,COM2,0,82.0,FINESTEERING,2008,325367.700,02000000,54e2,14307;2008,325367.700000000,39.14909839882,-77.61912036639,149.9587,0.0466,0.0214,0.0538,0.251293846,0.179837779,-0.000000000,INITIALIZING_BIASES*64d08175
#INSPVAA,COM2,0,82.0,FINESTEERING,2008,325367.750,02000000,54e2,14307;2008,325367.750000000,39.14909839630,-77.61912036787,149.9583,0.0466,0.0214,0.0538,0.251293846,0.179837779,-0.000000000,INITIALIZING_BIASES*06a5a6bc
#INSPVAA,COM2,0,82.0,FINESTEERING,2008,325367.800,02000000,54e2,14307;2008,325367.800000000,39.14909839714,-77.61912036737,149.9584,0.0466,0.0214,0.0538,0.251293846,0.179837779,-0.000000000,INITIALIZING_BIASES*40961b75
#INSPVAA,COM2,0,82.0,FINESTEERING,2008,325367.850,02000000,54e2,14307;2008,325367.850000000,39.14909839798,-77.61912036688,149.9586,0.0466,0.0214,0.0538,0.251293846,0.179837779,-0.000000000,INITIALIZING_BIASES*ce8c3070
#INSPVAA,COM2,0,82.0,FINESTEERING,2008,325367.900,02000000,54e2,14307;2008,325367.900000000,39.14909839882,-77.61912036639,149.9587,0.0466,0.0214,0.0538,0.251293846,0.179837779,-0.000000000,INITIALIZING_BIASES*38e2ceae
#INSPVAA,COM2,0,82.0,FINESTEERING,2008,325367.950,02000000,54e2,14307;2008,325367.950000000,39.14909839630,-77.61912036787,149.9583,0.0466,0.0214,0.0538,0.251293846,0.179837779,-0.000000000,INITIALIZING_BIASES*7f2bdc1b
#INSPVAA,COM2,0,82.0,FINESTEERING,2008,325368.000,02000000,54e2,14307;2008,325368.000000000,39.14909839714,-77.61912036737,149.9584,0.0466,0.0214,0.0538,0.251293846,0.179837779,-0.000000000,INITIALIZING_BIASES*652a0949
#INSPVAA,COM2,0,82.0,FINESTEERING,2008,325368.050,02000000,54e2,14307;2008,325368.050000000,39.14909839937,-77.61912034724,149.9831,-0.0504,0.0084,-0.0804,0.249581041,0.178158121,-0.000000000,INITIALIZING_BIASES*c74bc31f
#INSPVAA,COM2,0,82.0,FINESTEERING,2008,325368.100,02000000,54e2,14307;2008,325368.100000000,39.14909839847,-77.61912034705,149.9829,-0.0504,0.0084,-0.0804,0.249581041,0.178158121,-0.000000000,INITIALIZING_BIASES*d294eb49
#INSPVAA,COM2,0,82.0,FINESTEERING,2008,325368.150,02000000,54e2,14307;2008,325368.150000000,39.14909840119,-77.61912034763,149.9834,-0.0504,0.0084,-0.0804,0.249581041,0.178158121,-0.000000000,INITIALIZING_BIASES*effa391c
#INSPVAA,COM2,0,82.0,FINESTEERING,2008,325368.200,02000000,54e2,14307;2008,325368.200000000,39.14909840028,-77.61912034744,149.9832,-0.0504,0.0084,-0.0804,0.249581041,0.178158121,-0.000000000,INITIALIZING_BIASES*4171f294
#INSPVAA,COM2,0,82.0,FINESTEERING,2008,325368.250,02000000,54e2,14307;2008,325368.250000000,39.14909839937,-77.61912034724,149.9831,-0.0504,0.0084,-0.0804,0.249581041,0.178158121,-0.000000000,INITIALIZING_BIASES*daa313fe
#INSPVAA,COM2,0,82.0,FINESTEERING,2008,325368.300,02000000,54e2,14307;2008,325368.300000000,39.14909839847,-77.61912034705,149.9829,-0.0504,0.0084,-0.0804,0.249581041,0.178158121,-0.000000000,INITIALIZING_BIASES*909f47a0
#INSPVAA,COM2,0,82.0,FINESTEERING,2008,325368.350,02000000,54e2,14307;2008,325368.350000000,39.14909840119,-77.61912034763,149.9834,-0.0504,0.0084,-0.0804,0.249581041,0.178158121,-0.000000000,INITIALIZING_BIASES*e129164f
#INSPVAA,COM2,0,82.0,FINESTEERING,2008,325368.400,02000000,54e2,14307;2008,325368.400000000,39.14909840028,-77.61912034744,149.9832,-0.0504,0.0084,-0.0804,0.249581041,0.178158121,-0.000000000,INITIALIZING_BIASES*ba71aa2a
#INSPVAA,COM2,0,82.0,FINESTEERING,2008,325368.450,02000000,54e2,14307;2008,325368.450000000,39.14909839937,-77.61912034724,149.9831,-0.0504,0.0084,-0.0804,0.249581041,0.178158121,-0.000000000,INITIALIZING_BIASES*4f235e5f
#INSPVAA,COM2,0,82.0,FINESTEERING,2008,325368.500,02000000,54e2,14307;2008,325368.500000000,39.14909839846,-77.61912034705,149.9829,-0.0504,0.0084,-0.0804,0.249581041,0.178158121,-0.000000000,INITIALIZING_BIASES*a98f8534
#INSPVAA,COM2,0,82.0,FINESTEERING,2008,325368.550,02000000,54e2,14307;2008,325368.550000000,39.14909840119,-77.61912034763,149.9834,-0.0504,0.0084,-0.0804,0.249581041,0.178158121,-0.000000000,INITIALIZING_BIASES*278c9098
