#INSPVAA,64,0,86.5,FINESTEERING,2008,323991.250,33554432,54e2,14307;2008,323991.250000000,0.00000000000,0.00000000000,0.0000,0.0000,0.0000,0.0000,0.000000000,0.000000000,0.000000000,WAITING_INITIALPOS*8da4e118
#INSPVAA,64,0,86.5,FINESTEERING,2008,323991.300,33554432,54e2,14307;2008,323991.300000000,0.00000000000,0.00000000000,0.0000,0.0000,0.0000,0.0000,0.000000000,0.000000000,0.000000000,WAITING_INITIALPOS*9ebb44f2
#INSPVAA,64,0,86.5,FINESTEERING,2008,323991.350,33554432,54e2,14307;2008,323991.350000000,0.00000000000,0.00000000000,0.0000,0.0000,0.0000,0.0000,0.000000000,0.000000000,0.000000000,WAITING_INITIALPOS*0adef4fc
#INSPVAA,64,0,86.5,FINESTEERING,2008,323991.400,33554432,54e2,14307;2008,323991.400000000,0.00000000000,0.00000000000,0.0000,0.0000,0.0000,0.0000,0.000000000,0.000000000,0.000000000,WAITING_INITIALPOS*2d1eba0a
#INSPVAA,64,0,86.5,FINESTEERING,2008,323991.450,33554432,54e2,14307;2008,323991.450000000,0.00000000000,0.00000000000,0.0000,0.0000,0.0000,0.0000,0.000000000,0.000000000,0.000000000,WAITING_INITIALPOS*fd2ca8e4
#INSPVAA,64,0,86.5,FINESTEERING,2008,323991.500,33554432,54e2,14307;2008,323991.500000000,0.00000000000,0.00000000000,0.0000,0.0000,0.0000,0.0000,0.000000000,0.000000000,0.000000000,WAITING_INITIALPOS*94bc9154
#INSPVAA,64,0,86.5,FINESTEERING,2008,323991.550,33554432,54e2,14307;2008,323991.550000000,0.00000000000,0.00000000000,0.0000,0.0000,0.0000,0.0000,0.000000000,0.000000000,0.000000000,WAITING_INITIALPOS*bdeb8b50
#INSPVAA,64,0,86.5,FINESTEERING,2008,323991.600,33554432,54e2,14307;2008,323991.600000000,0.00000000000,0.00000000000,0.0000,0.0000,0.0000,0.0000,0.000000000,0.000000000,0.000000000,WAITING_INITIALPOS*a9c3d555
#INSPVAA,64,0,86.5,FINESTEERING,2008,323991.650,33554432,54e2,14307;2008,323991.650000000,0.00000000000,0.00000000000,0.0000,0.0000,0.0000,0.0000,0.000000000,0.000000000,0.000000000,WAITING_INITIALPOS*9911bffc
#INSPVAA,64,0,86.5,FINESTEERING,2008,323991.700,33554432,54e2,14307;2008,323991.700000000,0.00000000000,0.00000000000,0.0000,0.0000,0.0000,0.0000,0.000000000,0.000000000,0.000000000,WAITING_INITIALPOS*442db127
#INSPVAA,64,0,86.5,FINESTEERING,2008,323991.750,33554432,54e2,14307;2008,323991.750000000,0.00000000000,0.00000000000,0.0000,0.0000,0.0000,0.0000,0.000000000,0.000000000,0.000000000,WAITING_INITIALPOS*18fca488
#INSPVAA,64,0,86.5,FINESTEERING,2008,323991.800,33554432,54e2,14307;2008,323991.800000000,0.00000000000,0.00000000000,0.0000,0.0000,0.0000,0.0000,0.000000000,0.000000000,0.000000000,WAITING_INITIALPOS*26b99ad3
#INSPVAA,64,0,86.5,FINESTEERING,2008,323991.850,33554432,54e2,14307;2008,323991.850000000,0.00000000000,0.00000000000,0.0000,0.0000,0.0000,0.0000,0.000000000,0.000000000,0.000000000,WAITING_INITIALPOS*859a8906
#INSPVAA,64,0,86.5,FINESTEERING,2008,323991.900,33554432,54e2,14307;2008,323991.900000000,0.00000000000,0.00000000000,0.0000,0.0000,0.0000,0.0000,0.000000000,0.000000000,0.000000000,WAITING_INITIALPOS*d0361e32
#INSPVAA,64,0,86.5,FINESTEERING,2008,323991.950,33554432,54e2,14307;2008,323991.950000000,0.00000000000,0.00000000000,0.0000,0.0000,0.0000,0.0000,0.000000000,0.000000000,0.000000000,WAITING_INITIALPOS*6874ed74
#INSPVAA,64,0,86.5,FINESTEERING,2008,323992.000,33554432,54e2,14307;2008,323992.000000000,0.00000000000,0.00000000000,0.0000,0.0000,0.0000,0.0000,0.000000000,0.000000000,0.000000000,WAITING_INITIALPOS*957bb5b5
#INSPVAA,64,0,84.0,FINESTEERING,2008,323992.050,33554432,54e2,14307;2008,323992.050000000,39.14910293410,-77.61911241295,149.3528,-0.0274,0.0330,0.0255,0.000000000,0.000000000,0.000000000,INITIALIZING_BIASES*574b1994
#INSPVAA,64,0,84.0,FINESTEERING,2008,323992.100,33554432,54e2,14307;2008,323992.100000000,39.14910293361,-77.61911241218,149.3529,-0.0274,0.0330,0.0255,0.000000000,0.000000000,0.000000000,INITIALIZING_BIASES*f0b93524
#INSPVAA,64,0,84.0,FINESTEERING,2008,323992.150,33554432,54e2,14307;2008,323992.150000000,39.14910293311,-77.61911241142,149.3529,-0.0274,0.0330,0.0255,0.000000000,0.000000000,0.000000000,INITIALIZING_BIASES*492f7cef
#INSPVAA,64,0,84.0,FINESTEERING,2008,323992.200,33554432,54e2,14307;2008,323992.200000000,39.14910293262,-77.61911241066,149.3530,-0.0274,0.0330,0.0255,0.000000000,0.000000000,0.000000000,INITIALIZING_BIASES*a47361d7
#INSPVAA,64,0,84.0,FINESTEERING,2008,323992.250,33554432,54e2,14307;2008,323992.250000000,39.14910293410,-77.61911241295,149.3528,-0.0274,0.0330,0.0255,0.000000000,0.000000000,0.000000000,INITIALIZING_BIASES*ab4533f9
#INSPVAA,64,0,84.0,FINESTEERING,2008,323992.300,33554432,54e2,14307;2008,323992.300000000,39.14910293361,-77.61911241218,149.3529,-0.0274,0.0330,0.0255,0.000000000,0.000000000,0.000000000,INITIALIZING_BIASES*e5642a8a
#INSPVAA,64,0,84.0,FINESTEERING,2008,323992.350,33554432,54e2,14307;2008,323992.350000000,39.14910293311,-77.61911241142,149.3529,-0.0274,0.0330,0.0255,0.000000000,0.000000000,0.000000000,INITIALIZING_BIASES*20bec0a8
#INSPVAA,64,0,84.0,FINESTEERING,2008,323992.400,33554432,54e2,14307;2008,323992.400000000,39.14910293262,-77.61911241066,149.3530,-0.0274,0.0330,0.0255,0.000000000,0.000000000,0.000000000,INITIALIZING_BIASES*75eb38b4
#INSPVAA,64,0,84.0,FINESTEERING,2008,323992.450,33554432,54e2,14307;2008,323992.450000000,39.14910293410,-77.61911241295,149.3528,-0.0274,0.0330,0.0255,0.000000000,0.000000000,0.000000000,INITIALIZING_BIASES*937ae853
#INSPVAA,64,0,84.0,FINESTEERING,2008,323992.500,33554432,54e2,14307;2008,323992.500000000,39.14910293361,-77.61911241218,149.3529,-0.0274,0.0330,0.0255,0.000000000,0.000000000,0.000000000,INITIALIZING_BIASES*b99cf548
#INSPVAA,64,0,84.0,FINESTEERING,2008,323992.550,33554432,54e2,14307;2008,323992.550000000,39.14910293311,-77.61911241142,149.3529,-0.0274,0.0330,0.0255,0.000000000,0.000000000,0.000000000,INITIALIZING_BIASES*f1c07db7
#INSPVAA,64,0,84.0,FINESTEERING,2008,323992.600,33554432,54e2,14307;2008,323992.600000000,39.14910293262,-77.61911241066,149.3530,-0.0274,0.0330,0.0255,0.000000000,0.000000000,0.000000000,INITIALIZING_BIASES*7ee23cc8
#INSPVAA,64,0,84.0,FINESTEERING,2008,323992.650,33554432,54e2,14307;2008,323992.650000000,39.14910293410,-77.61911241295,149.3528,-0.0274,0.0330,0.0255,0.000000000,0.000000000,0.000000000,INITIALIZING_BIASES*45976739
#INSPVAA,64,0,84.0,FINESTEERING,2008,323992.700,33554432,54e2,14307;2008,323992.700000000,39.14910293361,-77.61911241218,149.3529,-0.0274,0.0330,0.0255,0.000000000,0.000000000,0.000000000,INITIALIZING_BIASES*a557cb7e
#INSPVAA,64,0,84.0,FINESTEERING,2008,323992.750,33554432,54e2,14307;2008,323992.750000000,39.14910293311,-77.61911241142,149.3529,-0.0274,0.0330,0.0255,0.000000000,0.000000000,0.000000000,INITIALIZING_BIASES*ea9b1a94
#INSPVAA,64,0,84.0,FINESTEERING,2008,323992.800,33554432,54e2,14307;2008,323992.800000000,39.14910293262,-77.61911241066,149.3530,-0.0274,0.0330,0.0255,0.000000000,0.000000000,0.000000000,INITIALIZING_BIASES*789ef019
#INSPVAA,64,0,84.0,FINESTEERING,2008,323992.850,33554432,54e2,14307;2008,323992.850000000,39.14910293410,-77.61911241295,149.3528,-0.0274,0.0330,0.0255,0.000000000,0.000000000,0.000000000,INITIALIZING_BIASES*6a74a500
#INSPVAA,64,0,84.0,FINESTEERING,2008,323992.900,33554432,54e2,14307;2008,323992.900000000,39.14910293361,-77.61911241218,149.3529,-0.0274,0.0330,0.0255,0.000000000,0.000000000,0.000000000,INITIALIZING_BIASES*1497d48b
#INSPVAA,64,0,84.0,FINESTEERING,2008,323992.950,33554432,54e2,14307;2008,323992.950000000,39.14910293311,-77.61911241142,149.3529,-0.0274,0.0330,0.0255,0.000000000,0.000000000,0.000000000,INITIALIZING_BIASES*f8a2bf7c
#INSPVAA,64,0,84.0,FINESTEERING,2008,323993.000,33554432,54e2,14307;2008,323993.000000000,39.14910293262,-77.61911241066,149.3530,-0.0274,0.0330,0.0255,0.000000000,0.000000000,0.000000000,INITIALIZING_BIASES*d154b5fa
#INSPVAA,64,0,81.5,FINESTEERING,2008,323993.050,33554432,54e2,14307;2008,323993.050000000,39.14910302005,-77.61911238149,149.3833,0.0044,-0.0028,-0.0151,0.260973179,0.182880205,-0.000000000,INITIALIZING_BIASES*2fc10560
#INSPVAA,64,0,81.5,FINESTEERING,2008,323993.100,33554432,54e2,14307;2008,323993.100000000,39.14910302013,-77.61911238156,149.3833,0.0044,-0.0028,-0.0151,0.260973179,0.182880205,-0.000000000,INITIALIZING_BIASES*afe0517f
#INSPVAA,64,0,81.5,FINESTEERING,2008,323993.150,33554432,54e2,14307;2008,323993.150000000,39.14910302021,-77.61911238162,149.3833,0.0044,-0.0028,-0.0151,0.260973179,0.182880205,-0.000000000,INITIALIZING_BIASES*e5850cff
#INSPVAA,64,0,81.5,FINESTEERING,2008,323993.200,33554432,54e2,14307;2008,323993.200000000,39.14910302028,-77.61911238169,149.3833,0.0044,-0.0028,-0.0151,0.260973179,0.182880205,-0.000000000,INITIALIZING_BIASES*debd3548
#INSPVAA,64,0,81.5,FINESTEERING,2008,323993.250,33554432,54e2,14307;2008,323993.250000000,39.14910302005,-77.61911238149,149.3833,0.0044,-0.0028,-0.0151,0.260973179,0.182880205,-0.000000000,INITIALIZING_BIASES*f7aafa41
#INSPVAA,64,0,81.5,FINESTEERING,2008,323993.300,33554432,54e2,14307;2008,323993.300000000,39.14910302013,-77.61911238156,149.3833,0.0044,-0.0028,-0.0151,0.260973179,0.182880205,-0.000000000,INITIALIZING_BIASES*a0baa03e
#INSPVAA,64,0,81.5,FINESTEERING,2008,323993.350,33554432,54e2,14307;2008,323993.350000000,39.14910302021,-77.61911238162,149.3833,0.0044,-0.0028,-0.0151,0.260973179,0.182880205,-0.000000000,INITIALIZING_BIASES*1eb2f438
#INSPVAA,64,0,81.5,FINESTEERING,2008,323993.400,33554432,54e2,14307;2008,323993.400000000,39.14910302028,-77.61911238169,149.3833,0.0044,-0.0028,-0.0151,0.260973179,0.182880205,-0.000000000,INITIALIZING_BIASES*7b87c49a
#INSPVAA,64,0,81.5,FINESTEERING,2008,323993.450,33554432,54e2,14307;2008,323993.450000000,39.14910302005,-77.61911238149,149.3833,0.0044,-0.0028,-0.0151,0.260973179,0.182880205,-0.000000000,INITIALIZING_BIASES*d8c23633
#INSPVAA,64,0,81.5,FINESTEERING,2008,323993.500,33554432,54e2,14307;2008,323993.500000000,39.14910302013,-77.61911238156,149.3833,0.0044,-0.0028,-0.0151,0.260973179,0.182880205,-0.000000000,INITIALIZING_BIASES*b0d8b541
#INSPVAA,64,0,81.5,FINESTEERING,2008,323993.550,33554432,54e2,14307;2008,323993.550000000,39.14910302021,-77.61911238162,149.3833,0.0044,-0.0028,-0.0151,0.260973179,0.182880205,-0.000000000,INITIALIZING_BIASES*714d1d4f
#INSPVAA,64,0,81.5,FINESTEERING,2008,323993.600,33554432,54e2,14307;2008,323993.600000000,39.14910302028,-77.61911238169,149.3833,0.0044,-0.0028,-0.0151,0.260973179,0.182880205,-0.000000000,INITIALIZING_BIASES*0c6c34f7
#INSPVAA,64,0,81.5,FINESTEERING,2008,323993.650,33554432,54e2,14307;2008,323993.650000000,39.14910302005,-77.61911238149,149.3833,0.0044,-0.0028,-0.0151,0.260973179,0.182880205,-0.000000000,INITIALIZING_BIASES*7718d170
#INSPVAA,64,0,81.5,FINESTEERING,2008,323993.700,33554432,54e2,14307;2008,323993.700000000,39.14910302013,-77.61911238156,149.3833,0.0044,-0.0028,-0.0151,0.260973179,0.182880205,-0.000000000,INITIALIZING_BIASES*7cc21b1c
#INSPVAA,64,0,81.5,FINESTEERING,2008,323993.750,33554432,54e2,14307;2008,323993.750000000,39.14910302021,-77.61911238162,149.3833,0.0044,-0.0028,-0.0151,0.260973179,0.182880205,-0.000000000,INITIALIZING_BIASES*88d24d13
#INSPVAA,64,0,81.5,FINESTEERING,2008,323993.800,33554432,54e2,14307;2008,323993.800000000,39.14910302028,-77.61911238169,149.3833,0.0044,-0.0028,-0.0151,0.260973179,0.182880205,-0.000000000,INITIALIZING_BIASES*60b63dd7
#INSPVAA,64,0,81.5,FINESTEERING,2008,323993.850,33554432,54e2,14307;2008,323993.850000000,39.14910302005,-77.61911238149,149.3833,0.0044,-0.0028,-0.0151,0.260973179,0.182880205,-0.000000000,INITIALIZING_BIASES*d4e8586a
#INSPVAA,64,0,81.5,FINESTEERING,2008,323993.900,33554432,54e2,14307;2008,323993.900000000,39.14910302013,-77.61911238156,149.3833,0.0044,-0.0028,-0.0151,0.260973179,0.182880205,-0.000000000,INITIALIZING_BIASES*7373c24d
#INSPVAA,64,0,81.5,FINESTEERING,2008,323993.950,33554432,54e2,14307;2008,323993.950000000,39.14910302021,-77.61911238162,149.3833,0.0044,-0.0028,-0.0151,0.260973179,0.182880205,-0.000000000,INITIALIZING_BIASES*d1d71c43
#INSPVAA,64,0,81.5,FINESTEERING,2008,323994.000,33554432,54e2,14307;2008,323994.000000000,39.14910302029,-77.61911238169,149.3833,0.0044,-0.0028,-0.0151,0.260973179,0.182880205,-0.000000000,INITIALIZING_BIASES*5b8d454e
#INSPVAA,64,0,81.5,FINESTEERING,2008,323994.050,33554432,54e2,14307;2008,323994.050000000,39.14910298056,-77.61911225909,149.4009,0.0134,-0.0090,-0.0516,0.259385033,0.187388123,-0.000000000,INITIALIZING_BIASES*37609ade
#INSPVAA,64,0,82.0,FINESTEERING,2008,323994.100,33554432,54e2,14307;2008,323994.100000000,39.14910298080,-77.61911225930,149.4008,0.0134,-0.0090,-0.0516,0.259385033,0.187388123,-0.000000000,INITIALIZING_BIASES*f07d96a7
#INSPVAA,64,0,82.0,FINESTEERING,2008,323994.150,33554432,54e2,14307;2008,323994.150000000,39.14910298104,-77.61911225950,149.4007,0.0134,-0.0090,-0.0516,0.259385033,0.187388123,-0.000000000,INITIALIZING_BIASES*fb55dd6a
#INSPVAA,64,0,82.0,FINESTEERING,2008,323994.200,33554432,54e2,14307;2008,323994.200000000,39.14910298128,-77.61911225971,149.4006,0.0134,-0.0090,-0.0516,0.259385033,0.187388123,-0.000000000,INITIALIZING_BIASES*cf90a938
#INSPVAA,64,0,82.0,FINESTEERING,2008,323994.250,33554432,54e2,14307;2008,323994.250000000,39.14910298056,-77.61911225909,149.4009,0.0134,-0.0090,-0.0516,0.259385033,0.187388123,-0.000000000,INITIALIZING_BIASES*8b9aa6aa
#INSPVAA,64,0,82.0,FINESTEERING,2008,323994.300,33554432,54e2,14307;2008,323994.300000000,39.14910298080,-77.61911225930,149.4008,0.0134,-0.0090,-0.0516,0.259385033,0.187388123,-0.000000000,INITIALIZING_BIASES*d0c6f457
#INSPVAA,64,0,82.0,FINESTEERING,2008,323994.350,33554432,54e2,14307;2008,323994.350000000,39.14910298104,-77.61911225951,149.4007,0.0134,-0.0090,-0.0516,0.259385033,0.187388123,-0.000000000,INITIALIZING_BIASES*e6f3229a
#INSPVAA,64,0,82.0,FINESTEERING,2008,323994.400,33554432,54e2,14307;2008,323994.400000000,39.14910298128,-77.61911225971,149.4006,0.0134,-0.0090,-0.0516,0.259385033,0.187388123,-0.000000000,INITIALIZING_BIASES*506e65cd
#INSPVAA,64,0,82.0,FINESTEERING,2008,323994.450,33554432,54e2,14307;2008,323994.450000000,39.14910298056,-77.61911225909,149.4009,0.0134,-0.0090,-0.0516,0.259385033,0.187388123,-0.000000000,INITIALIZING_BIASES*30d33f73
#INSPVAA,64,0,82.0,FINESTEERING,2008,323994.500,33554432,54e2,14307;2008,323994.500000000,39.14910298080,-77.61911225930,149.4008,0.0134,-0.0090,-0.0516,0.259385033,0.187388123,-0.000000000,INITIALIZING_BIASES*0b9832b2
#INSPVAA,64,0,82.0,FINESTEERING,2008,323994.550,33554432,54e2,14307;2008,323994.550000000,39.14910298104,-77.61911225951,149.4007,0.0134,-0.0090,-0.0516,0.259385033,0.187388123,-0.000000000,INITIALIZING_BIASES*5d03d621
#INSPVAA,64,0,82.0,FINESTEERING,2008,323994.600,33554432,54e2,14307;2008,323994.600000000,39.14910298128,-77.61911225971,149.4006,0.0134,-0.0090,-0.0516,0.259385033,0.187388123,-0.000000000,INITIALIZING_BIASES*f5eed17a
#INSPVAA,64,0,82.0,FINESTEERING,2008,323994.650,33554432,54e2,14307;2008,323994.650000000,39.14910298056,-77.61911225909,149.4009,0.0134,-0.0090,-0.0516,0.259385033,0.187388123,-0.000000000,INITIALIZING_BIASES*daec63ba
#INSPVAA,64,0,82.0,FINESTEERING,2008,323994.700,33554432,54e2,14307;2008,323994.700000000,39.14910298080,-77.61911225930,149.4008,0.0134,-0.0090,-0.0516,0.259385033,0.187388123,-0.000000000,INITIALIZING_BIASES*30584ea7
#INSPVAA,64,0,82.0,FINESTEERING,2008,323994.750,33554432,54e2,14307;2008,323994.750000000,39.14910298104,-77.61911225951,149.4007,0.0134,-0.0090,-0.0516,0.259385033,0.187388123,-0.000000000,INITIALIZING_BIASES*7f205c26
#INSPVAA,64,0,82.0,FINESTEERING,2008,323994.800,33554432,54e2,14307;2008,323994.800000000,39.14910298128,-77.61911225971,149.4006,0.0134,-0.0090,-0.0516,0.259385033,0.187388123,-0.000000000,INITIALIZING_BIASES*ee2f2ba4
#INSPVAA,64,0,82.0,FINESTEERING,2008,323994.850,33554432,54e2,14307;2008,323994.850000000,39.14910298056,-77.61911225909,149.4009,0.0134,-0.0090,-0.0516,0.259385033,0.187388123,-0.000000000,INITIALIZING_BIASES*9e4590f1
#INSPVAA,64,0,82.0,FINESTEERING,2008,323994.900,33554432,54e2,14307;2008,323994.900000000,39.14910298080,-77.61911225930,149.4008,0.0134,-0.0090,-0.0516,0.259385033,0.187388123,-0.000000000,INITIALIZING_BIASES*6b1fa76e
#INSPVAA,64,0,82.0,FINESTEERING,2008,323994.950,33554432,54e2,14307;2008,323994.950000000,39.14910298104,-77.61911225951,149.4007,0.0134,-0.0090,-0.0516,0.259385033,0.187388123,-0.000000000,INITIALIZING_BIASES*9f6994f4
#INSPVAA,64,0,82.0,FINESTEERING,2008,323995.000,33554432,54e2,14307;2008,323995.000000000,39.14910298128,-77.61911225971,149.4006,0.0134,-0.0090,-0.0516,0.259385033,0.187388123,-0.000000000,INITIALIZING_BIASES*b2710bd0
#INSPVAA,64,0,81.0,FINESTEERING,2008,323995.050,33554432,54e2,14307;2008,323995.050000000,39.14910298649,-77.61911213554,149.4219,0.0126,-0.0164,-0.0099,0.265270147,0.186742361,-0.000000000,INITIALIZING_BIASES*83cea4f9
#INSPVAA,64,0,81.0,FINESTEERING,2008,323995.100,33554432,54e2,14307;2008,323995.100000000,39.14910298672,-77.61911213592,149.4219,0.0126,-0.0164,-0.0099,0.265270147,0.186742361,-0.000000000,INITIALIZING_BIASES*240ad188
#INSPVAA,64,0,81.0,FINESTEERING,2008,323995.150,33554432,54e2,14307;2008,323995.150000000,39.14910298695,-77.61911213630,149.4219,0.0126,-0.0164,-0.0099,0.265270147,0.186742361,-0.000000000,INITIALIZING_BIASES*64d17004
#INSPVAA,64,0,81.0,FINESTEERING,2008,323995.200,33554432,54e2,14307;2008,323995.200000000,39.14910298718,-77.61911213668,149.4219,0.0126,-0.0164,-0.0099,0.265270147,0.186742361,-0.000000000,INITIALIZING_BIASES*09c4557c
#INSPVAA,64,0,81.0,FINESTEERING,2008,323995.250,33554432,54e2,14307;2008,323995.250000000,39.14910298649,-77.61911213554,149.4219,0.0126,-0.0164,-0.0099,0.265270147,0.186742361,-0.000000000,INITIALIZING_BIASES*92dd9021
#INSPVAA,64,0,81.0,FINESTEERING,2008,323995.300,33554432,54e2,14307;2008,323995.300000000,39.14910298672,-77.61911213592,149.4219,0.0126,-0.0164,-0.0099,0.265270147,0.186742361,-0.000000000,INITIALIZING_BIASES*55712d32
#INSPVAA,64,0,81.0,FINESTEERING,2008,323995.350,33554432,54e2,14307;2008,323995.350000000,39.14910298695,-77.61911213630,149.4219,0.0126,-0.0164,-0.0099,0.265270147,0.186742361,-0.000000000,INITIALIZING_BIASES*d115de0e
#INSPVAA,64,0,81.0,FINESTEERING,2008,323995.400,33554432,54e2,14307;2008,323995.400000000,39.14910298718,-77.61911213668,149.4219,0.0126,-0.0164,-0.0099,0.265270147,0.186742361,-0.000000000,INITIALIZING_BIASES*07208a51
#INSPVAA,64,0,81.0,FINESTEERING,2008,323995.450,33554432,54e2,14307;2008,323995.450000000,39.14910298649,-77.61911213554,149.4219,0.0126,-0.0164,-0.0099,0.265270147,0.186742361,-0.000000000,INITIALIZING_BIASES*cf13505b
#INSPVAA,64,0,81.0,FINESTEERING,2008,323995.500,33554432,54e2,14307;2008,323995.500000000,39.14910298672,-77.61911213592,149.4219,0.0126,-0.0164,-0.0099,0.265270147,0.186742361,-0.000000000,INITIALIZING_BIASES*1766bb20
#INSPVAA,64,0,81.0,FINESTEERING,2008,323995.550,33554432,54e2,14307;2008,323995.550000000,39.14910298695,-77.61911213630,149.4219,0.0126,-0.0164,-0.0099,0.265270147,0.186742361,-0.000000000,INITIALIZING_BIASES*29906224
#INSPVAA,64,0,81.0,FINESTEERING,2008,323995.600,33554432,54e2,14307;2008,323995.600000000,39.14910298718,-77.61911213668,149.4219,0.0126,-0.0164,-0.0099,0.265270147,0.186742361,-0.000000000,INITIALIZING_BIASES*81d71f24
#INSPVAA,64,0,81.0,FINESTEERING,2008,323995.650,33554432,54e2,14307;2008,323995.650000000,39.14910298649,-77.61911213554,149.4219,0.0126,-0.0164,-0.0099,0.265270147,0.186742361,-0.000000000,INITIALIZING_BIASES*8e834e2e
#INSPVAA,64,0,81.0,FINESTEERING,2008,323995.700,33554432,54e2,14307;2008,323995.700000000,39.14910298672,-77.61911213592,149.4219,0.0126,-0.0164,-0.0099,0.265270147,0.186742361,-0.000000000,INITIALIZING_BIASES*6dcdc6ac
#INSPVAA,64,0,81.0,FINESTEERING,2008,323995.750,33554432,54e2,14307;2008,323995.750000000,39.14910298695,-77.61911213630,149.4219,0.0126,-0.0164,-0.0099,0.265270147,0.186742361,-0.000000000,INITIALIZING_BIASES*e5a7b2ad
#INSPVAA,64,0,81.0,FINESTEERING,2008,323995.800,33554432,54e2,14307;2008,323995.800000000,39.14910298718,-77.61911213668,149.4219,0.0126,-0.0164,-0.0099,0.265270147,0.186742361,-0.000000000,INITIALIZING_BIASES*43174f41
#INSPVAA,64,0,81.0,FINESTEERING,2008,323995.850,33554432,54e2,14307;2008,323995.850000000,39.14910298649,-77.61911213554,149.4219,0.0126,-0.0164,-0.0099,0.265270147,0.186742361,-0.000000000,INITIALIZING_BIASES*a8b2293b
#INSPVAA,64,0,81.0,FINESTEERING,2008,323995.900,33554432,54e2,14307;2008,323995.900000000,39.14910298672,-77.61911213592,149.4219,0.0126,-0.0164,-0.0099,0.265270147,0.186742361,-0.000000000,INITIALIZING_BIASES*19bca0cb
#INSPVAA,64,0,81.0,FINESTEERING,2008,323995.950,33554432,54e2,14307;2008,323995.950000000,39.14910298695,-77.61911213630,149.4219,0.0126,-0.0164,-0.0099,0.265270147,0.186742361,-0.000000000,INITIALIZING_BIASES*c99b1837
#INSPVAA,64,0,81.0,FINESTEERING,2008,323996.000,33554432,54e2,14307;2008,323996.000000000,39.14910298718,-77.61911213668,149.4219,0.0126,-0.0164,-0.0099,0.265270147,0.186742361,-0.000000000,INITIALIZING_BIASES*37252ca2
#INSPVAA,64,0,81.0,FINESTEERING,2008,323996.050,33554432,54e2,14307;2008,323996.050000000,39.14910302262,-77.61911199488,149.4449,-0.0043,-0.0027,0.0180,0.257548078,0.187312798,-0.000000000,INITIALIZING_BIASES*edcfda31
#INSPVAA,64,0,81.0,FINESTEERING,2008,323996.100,33554432,54e2,14307;2008,323996.100000000,39.14910302254,-77.61911199495,149.4449,-0.0043,-0.0027,0.0180,0.257548078,0.187312798,-0.000000000,INITIALIZING_BIASES*98abba11
#INSPVAA,64,0,81.0,FINESTEERING,2008,323996.150,33554432,54e2,14307;2008,323996.150000000,39.14910302246,-77.61911199501,149.4450,-0.0043,-0.0027,0.0180,0.257548078,0.187312798,-0.000000000,INITIALIZING_BIASES*966f3480
#INSPVAA,64,0,81.0,FINESTEERING,2008,323996.200,33554432,54e2,14307;2008,323996.200000000,39.14910302239,-77.61911199507,149.4450,-0.0043,-0.0027,0.0180,0.257548078,0.187312798,-0.000000000,INITIALIZING_BIASES*8d5ec0e6
#INSPVAA,64,0,81.0,FINESTEERING,2008,323996.250,33554432,54e2,14307;2008,323996.250000000,39.14910302262,-77.61911199488,149.4449,-0.0043,-0.0027,0.0180,0.257548078,0.187312798,-0.000000000,INITIALIZING_BIASES*413507fb
#INSPVAA,64,0,81.0,FINESTEERING,2008,323996.300,33554432,54e2,14307;2008,323996.300000000,39.14910302254,-77.61911199495,149.4449,-0.0043,-0.0027,0.0180,0.257548078,0.187312798,-0.000000000,INITIALIZING_BIASES*33028d0c
#INSPVAA,64,0,81.0,FINESTEERING,2008,323996.350,33554432,54e2,14307;2008,323996.350000000,39.14910302246,-77.61911199501,149.4450,-0.0043,-0.0027,0.0180,0.257548078,0.187312798,-0.000000000,INITIALIZING_BIASES*bb5f07bf
#INSPVAA,64,0,81.0,FINESTEERING,2008,323996.400,33554432,54e2,14307;2008,323996.400000000,39.14910302239,-77.61911199507,149.4450,-0.0043,-0.0027,0.0180,0.257548078,0.187312798,-0.000000000,INITIALIZING_BIASES*83656ec9
#INSPVAA,64,0,81.0,FINESTEERING,2008,323996.450,33554432,54e2,14307;2008,323996.450000000,39.14910302262,-77.61911199488,149.4449,-0.0043,-0.0027,0.0180,0.257548078,0.187312798,-0.000000000,INITIALIZING_BIASES*b4261497
#INSPVAA,64,0,81.0,FINESTEERING,2008,323996.500,33554432,54e2,14307;2008,323996.500000000,39.14910302254,-77.61911199495,149.4449,-0.0043,-0.0027,0.0180,0.257548078,0.187312798,-0.000000000,INITIALIZING_BIASES*e01bb94f
#INSPVAA,64,0,81.0,FINESTEERING,2008,323996.550,33554432,54e2,14307;2008,323996.550000000,39.14910302246,-77.61911199501,149.4450,-0.0043,-0.0027,0.0180,0.257548078,0.187312798,-0.000000000,INITIALIZING_BIASES*c74e5917
#INSPVAA,64,0,81.0,FINESTEERING,2008,323996.600,33554432,54e2,14307;2008,323996.600000000,39.14910302239,-77.61911199507,149.4450,-0.0043,-0.0027,0.0180,0.257548078,0.187312798,-0.000000000,INITIALIZING_BIASES*b79cc548
#INSPVAA,64,0,81.0,FINESTEERING,2008,323996.650,33554432,54e2,14307;2008,323996.650000000,39.14910302262,-77.61911199488,149.4449,-0.0043,-0.0027,0.0180,0.257548078,0.187312798,-0.000000000,INITIALIZING_BIASES*48206499
#INSPVAA,64,0,81.0,FINESTEERING,2008,323996.700,33554432,54e2,14307;2008,323996.700000000,39.14910302254,-77.61911199495,149.4449,-0.0043,-0.0027,0.0180,0.257548078,0.187312798,-0.000000000,INITIALIZING_BIASES*10b2fb99
#INSPVAA,64,0,81.0,FINESTEERING,2008,323996.750,33554432,54e2,14307;2008,323996.750000000,39.14910302246,-77.61911199501,149.4450,-0.0043,-0.0027,0.0180,0.257548078,0.187312798,-0.000000000,INITIALIZING_BIASES*14918484
#INSPVAA,64,0,81.0,FINESTEERING,2008,323996.800,33554432,54e2,14307;2008,323996.800000000,39.14910302239,-77.61911199507,149.4450,-0.0043,-0.0027,0.0180,0.257548078,0.187312798,-0.000000000,INITIALIZING_BIASES*c28ef9f5
#INSPVAA,64,0,81.0,FINESTEERING,2008,323996.850,33554432,54e2,14307;2008,323996.850000000,39.14910302262,-77.61911199488,149.4449,-0.0043,-0.0027,0.0180,0.257548078,0.187312798,-0.000000000,INITIALIZING_BIASES*c0c1706b
#INSPVAA,64,0,81.0,FINESTEERING,2008,323996.900,33554432,54e2,14307;2008,323996.900000000,39.14910302254,-77.61911199495,149.4449,-0.0043,-0.0027,0.0180,0.257548078,0.187312798,-0.000000000,INITIALIZING_BIASES*12a93697
#INSPVAA,64,0,81.0,FINESTEERING,2008,323996.950,33554432,54e2,14307;2008,323996.950000000,39.14910302246,-77.61911199501,149.4450,-0.0043,-0.0027,0.0180,0.257548078,0.187312798,-0.000000000,INITIALIZING_BIASES*809035ad
#INSPVAA,64,0,81.0,FINESTEERING,2008,323997.000,33554432,54e2,14307;2008,323997.000000000,39.14910302239,-77.61911199507,149.4450,-0.0043,-0.0027,0.0180,0.257548078,0.187312798,-0.000000000,INITIALIZING_BIASES*17c0e8e7
#INSPVAA,64,0,81.0,FINESTEERING,2008,323997.050,33554432,54e2,14307;2008,323997.050000000,39.14910304986,-77.61911190752,149.4748,0.0304,0.0000,-0.0046,0.255995356,0.181083904,-0.000000000,INITIALIZING_BIASES*22a78122
#INSPVAA,64,0,81.5,FINESTEERING,2008,323997.100,33554432,54e2,14307;2008,323997.100000000,39.14910305040,-77.61911190752,149.4748,0.0304,0.0000,-0.0046,0.255995356,0.181083904,-0.000000000,INITIALIZING_BIASES*9e64ab4f
#INSPVAA,64,0,81.5,FINESTEERING,2008,323997.150,33554432,54e2,14307;2008,323997.150000000,39.14910305095,-77.61911190752,149.4748,0.0304,0.0000,-0.0046,0.255995356,0.181083904,-0.000000000,INITIALIZING_BIASES*b8d80535
#INSPVAA,64,0,81.5,FINESTEERING,2008,323997.200,33554432,54e2,14307;2008,323997.200000000,39.14910305150,-77.61911190752,149.4748,0.0304,0.0000,-0.0046,0.255995356,0.181083904,-0.000000000,INITIALIZING_BIASES*e5490e82
#INSPVAA,64,0,81.5,FINESTEERING,2008,323997.250,33554432,54e2,14307;2008,323997.250000000,39.14910304986,-77.61911190752,149.4748,0.0304,0.0000,-0.0046,0.255995356,0.181083904,-0.000000000,INITIALIZING_BIASES*97bf9819
#INSPVAA,64,0,81.5,FINESTEERING,2008,323997.300,33554432,54e2,14307;2008,323997.300000000,39.14910305040,-77.61911190752,149.4748,0.0304,0.0000,-0.0046,0.255995356,0.181083904,-0.000000000,INITIALIZING_BIASES*c47cec2b
#INSPVAA,64,0,81.5,FINESTEERING,2008,323997.350,33554432,54e2,14307;2008,323997.350000000,39.14910305095,-77.61911190752,149.4748,0.0304,0.0000,-0.0046,0.255995356,0.181083904,-0.000000000,INITIALIZING_BIASES*3272cf5f
#INSPVAA,64,0,81.5,FINESTEERING,2008,323997.400,33554432,54e2,14307;2008,323997.400000000,39.14910305150,-77.61911190752,149.4748,0.0304,0.0000,-0.0046,0.255995356,0.181083904,-0.000000000,INITIALIZING_BIASES*fc21bde0
#INSPVAA,64,0,81.5,FINESTEERING,2008,323997.450,33554432,54e2,14307;2008,323997.450000000,39.14910304986,-77.61911190752,149.4748,0.0304,0.0000,-0.0046,0.255995356,0.181083904,-0.000000000,INITIALIZING_BIASES*499a27fc
#INSPVAA,64,0,81.5,FINESTEERING,2008,323997.500,33554432,54e2,14307;2008,323997.500000000,39.14910305040,-77.61911190752,149.4748,0.0304,0.0000,-0.0046,0.255995356,0.181083904,-0.000000000,INITIALIZING_BIASES*d1daf928
#INSPVAA,64,0,81.5,FINESTEERING,2008,323997.550,33554432,54e2,14307;2008,323997.550000000,39.14910305095,-77.61911190752,149.4748,0.0304,0.0000,-0.0046,0.255995356,0.181083904,-0.000000000,INITIALIZING_BIASES*c94d4e3a
#INSPVAA,64,0,81.5,FINESTEERING,2008,323997.600,33554432,54e2,14307;2008,323997.600000000,39.14910305150,-77.61911190752,149.4748,0.0304,0.0000,-0.0046,0.255995356,0.181083904,-0.000000000,INITIALIZING_BIASES*bfbeded4
#INSPVAA,64,0,81.5,FINESTEERING,2008,323997.650,33554432,54e2,14307;2008,323997.650000000,39.14910304986,-77.61911190752,149.4748,0.0304,0.0000,-0.0046,0.255995356,0.181083904,-0.000000000,INITIALIZING_BIASES*bd55acc4
#INSPVAA,64,0,81.5,FINESTEERING,2008,323997.700,33554432,54e2,14307;2008,323997.700000000,39.14910305040,-77.61911190752,149.4748,0.0304,0.0000,-0.0046,0.255995356,0.181083904,-0.000000000,INITIALIZING_BIASES*623e9b2c
#INSPVAA,64,0,81.5,FINESTEERING,2008,323997.750,33554432,54e2,14307;2008,323997.750000000,39.14910305095,-77.61911190752,149.4748,0.0304,0.0000,-0.0046,0.255995356,0.181083904,-0.000000000,INITIALIZING_BIASES*f41d2aa8
#INSPVAA,64,0,81.5,FINESTEERING,2008,323997.800,33554432,54e2,14307;2008,323997.800000000,39.14910305150,-77.61911190752,149.4748,0.0304,0.0000,-0.0046,0.255995356,0.181083904,-0.000000000,INITIALIZING_BIASES*20879bfb
#INSPVAA,64,0,81.5,FINESTEERING,2008,323997.850,33554432,54e2,14307;2008,323997.850000000,39.14910304986,-77.61911190752,149.4748,0.0304,0.0000,-0.0046,0.255995356,0.181083904,-0.000000000,INITIALIZING_BIASES*c7f62e77
#INSPVAA,64,0,81.5,FINESTEERING,2008,323997.900,33554432,54e2,14307;2008,323997.900000000,39.14910305040,-77.61911190752,149.4748,0.0304,0.0000,-0.0046,0.255995356,0.181083904,-0.000000000,INITIALIZING_BIASES*9dfcf2ed
#INSPVAA,64,0,81.5,FINESTEERING,2008,323997.950,33554432,54e2,14307;2008,323997.950000000,39.14910305095,-77.61911190752,149.4748,0.0304,0.0000,-0.0046,0.255995356,0.181083904,-0.000000000,INITIALIZING_BIASES*e1fb2199
#INSPVAA,64,0,81.5,FINESTEERING,2008,323998.000,33554432,54e2,14307;2008,323998.000000000,39.14910305150,-77.61911190752,149.4748,0.0304,0.0000,-0.0046,0.255995356,0.181083904,-0.000000000,INITIALIZING_BIASES*79409059
#INSPVAA,64,0,81.5,FINESTEERING,2008,323998.050,33554432,54e2,14307;2008,323998.050000000,39.14910306531,-77.61911181459,149.4932,0.0224,0.0128,0.0265,0.261415943,0.184234252,-0.000000000,INITIALIZING_BIASES*b38c96e0
#INSPVAA,64,0,82.0,FINESTEERING,2008,323998.100,33554432,54e2,14307;2008,323998.100000000,39.14910306571,-77.61911181430,149.4932,0.0224,0.0128,0.0265,0.261415943,0.184234252,-0.000000000,INITIALIZING_BIASES*63087254
#INSPVAA,64,0,82.0,FINESTEERING,2008,323998.150,33554432,54e2,14307;2008,323998.150000000,39.14910306611,-77.61911181400,149.4933,0.0224,0.0128,0.0265,0.261415943,0.184234252,-0.000000000,INITIALIZING_BIASES*5c8f62f7
#INSPVAA,64,0,82.0,FINESTEERING,2008,323998.200,33554432,54e2,14307;2008,323998.200000000,39.14910306652,-77.61911181371,149.4933,0.0224,0.0128,0.0265,0.261415943,0.184234252,-0.000000000,INITIALIZING_BIASES*3c5c558a
#INSPVAA,64,0,82.0,FINESTEERING,2008,323998.250,33554432,54e2,14307;2008,323998.250000000,39.14910306531,-77.61911181459,149.4932,0.0224,0.0128,0.0265,0.261415943,0.184234252,-0.000000000,INITIALIZING_BIASES*2a3d641b
#INSPVAA,64,0,82.0,FINESTEERING,2008,323998.300,33554432,54e2,14307;2008,323998.300000000,39.14910306571,-77.61911181430,149.4932,0.0224,0.0128,0.0265,0.261415943,0.184234252,-0.000000000,INITIALIZING_BIASES*9eceb934
#INSPVAA,64,0,82.0,FINESTEERING,2008,323998.350,33554432,54e2,14307;2008,323998.350000000,39.14910306611,-77.61911181400,149.4933,0.0224,0.0128,0.0265,0.261415943,0.184234252,-0.000000000,INITIALIZING_BIASES*c11d774e
#INSPVAA,64,0,82.0,FINESTEERING,2008,323998.400,33554432,54e2,14307;2008,323998.400000000,39.14910306652,-77.61911181371,149.4933,0.0224,0.0128,0.0265,0.261415943,0.184234252,-0.000000000,INITIALIZING_BIASES*c27aca3c
#INSPVAA,64,0,82.0,FINESTEERING,2008,323998.450,33554432,54e2,14307;2008,323998.450000000,39.14910306531,-77.61911181459,149.4932,0.0224,0.0128,0.0265,0.261415943,0.184234252,-0.000000000,INITIALIZING_BIASES*e7322c65
#INSPVAA,64,0,82.0,FINESTEERING,2008,323998.500,33554432,54e2,14307;2008,323998.500000000,39.14910306571,-77.61911181430,149.4932,0.0224,0.0128,0.0265,0.261415943,0.184234252,-0.000000000,INITIALIZING_BIASES*05a4e9eb
#INSPVAA,64,0,82.0,FINESTEERING,2008,323998.550,33554432,54e2,14307;2008,323998.550000000,39.14910306611,-77.61911181400,149.4933,0.0224,0.0128,0.0265,0.261415943,0.184234252,-0.000000000,INITIALIZING_BIASES*15160ebb
#INSPVAA,64,0,82.0,FINESTEERING,2008,323998.600,33554432,54e2,14307;2008,323998.600000000,39.14910306652,-77.61911181371,149.4933,0.0224,0.0128,0.0265,0.261415943,0.184234252,-0.000000000,INITIALIZING_BIASES*18e7a03d
#INSPVAA,64,0,82.0,FINESTEERING,2008,323998.650,33554432,54e2,14307;2008,323998.650000000,39.14910306531,-77.61911181459,149.4932,0.0224,0.0128,0.0265,0.261415943,0.184234252,-0.000000000,INITIALIZING_BIASES*8b383502
#INSPVAA,64,0,82.0,FINESTEERING,2008,323998.700,33554432,54e2,14307;2008,323998.700000000,39.14910306571,-77.61911181430,149.4932,0.0224,0.0128,0.0265,0.261415943,0.184234252,-0.000000000,INITIALIZING_BIASES*65a3d542
#INSPVAA,64,0,82.0,FINESTEERING,2008,323998.750,33554432,54e2,14307;2008,323998.750000000,39.14910306611,-77.61911181400,149.4933,0.0224,0.0128,0.0265,0.261415943,0.184234252,-0.000000000,INITIALIZING_BIASES*20a0e9c0
#INSPVAA,64,0,82.0,FINESTEERING,2008,323998.800,33554432,54e2,14307;2008,323998.800000000,39.14910306652,-77.61911181371,149.4933,0.0224,0.0128,0.0265,0.261415943,0.184234252,-0.000000000,INITIALIZING_BIASES*bf237c35
#INSPVAA,64,0,82.0,FINESTEERING,2008,323998.850,33554432,54e2,14307;2008,323998.850000000,39.14910306531,-77.61911181459,149.4932,0.0224,0.0128,0.0265,0.261415943,0.184234252,-0.000000000,INITIALIZING_BIASES*b0a60c1e
#INSPVAA,64,0,82.0,FINESTEERING,2008,323998.900,33554432,54e2,14307;2008,323998.900000000,39.14910306571,-77.61911181430,149.4932,0.0224,0.0128,0.0265,0.261415943,0.184234252,-0.000000000,INITIALIZING_BIASES*c49df503
#INSPVAA,64,0,82.0,FINESTEERING,2008,323998.950,33554432,54e2,14307;2008,323998.950000000,39.14910306611,-77.61911181400,149.4933,0.0224,0.0128,0.0265,0.261415943,0.184234252,-0.000000000,INITIALIZING_BIASES*ec8153f8
#INSPVAA,64,0,82.0,FINESTEERING,2008,323999.000,33554432,54e2,14307;2008,323999.000000000,39.14910306652,-77.61911181370,149.4933,0.0224,0.0128,0.0265,0.261415943,0.184234252,-0.000000000,INITIALIZING_BIASES*07487ec9
#INSPVAA,64,0,80.5,FINESTEERING,2008,323999.050,33554432,54e2,14307;2008,323999.050000000,39.14910416492,-77.61911142657,149.6270,0.0078,-0.0180,-0.0291,0.265234243,0.182613733,-0.000000000,INITIALIZING_BIASES*fe3b77ab
#INSPVAA,64,0,80.5,FINESTEERING,2008,323999.100,33554432,54e2,14307;2008,323999.100000000,39.14910416506,-77.61911142699,149.6269,0.0078,-0.0180,-0.0291,0.265234243,0.182613733,-0.000000000,INITIALIZING_BIASES*847a068f
#INSPVAA,64,0,80.5,FINESTEERING,2008,323999.150,33554432,54e2,14307;2008,323999.150000000,39.14910416520,-77.61911142741,149.6269,0.0078,-0.0180,-0.0291,0.265234243,0.182613733,-0.000000000,INITIALIZING_BIASES*cc7835e3
#INSPVAA,64,0,80.5,FINESTEERING,2008,323999.200,33554432,54e2,14307;2008,323999.200000000,39.14910416534,-77.61911142782,149.6268,0.0078,-0.0180,-0.0291,0.265234243,0.182613733,-0.000000000,INITIALIZING_BIASES*8699e289
#INSPVAA,64,0,80.5,FINESTEERING,2008,323999.250,33554432,54e2,14307;2008,323999.250000000,39.14910416492,-77.61911142657,149.6270,0.0078,-0.0180,-0.0291,0.265234243,0.182613733,-0.000000000,INITIALIZING_BIASES*48795a23
#INSPVAA,64,0,80.5,FINESTEERING,2008,323999.300,33554432,54e2,14307;2008,323999.300000000,39.14910416506,-77.61911142699,149.6269,0.0078,-0.0180,-0.0291,0.265234243,0.182613733,-0.000000000,INITIALIZING_BIASES*1ce3f222
#INSPVAA,64,0,80.5,FINESTEERING,2008,323999.350,33554432,54e2,14307;2008,323999.350000000,39.14910416520,-77.61911142741,149.6269,0.0078,-0.0180,-0.0291,0.265234243,0.182613733,-0.000000000,INITIALIZING_BIASES*f30f3324
#INSPVAA,64,0,80.5,FINESTEERING,2008,323999.400,33554432,54e2,14307;2008,323999.400000000,39.14910416534,-77.61911142782,149.6268,0.0078,-0.0180,-0.0291,0.265234243,0.182613733,-0.000000000,INITIALIZING_BIASES*2ef581ab
#INSPVAA,64,0,80.5,FINESTEERING,2008,323999.450,33554432,54e2,14307;2008,323999.450000000,39.14910416492,-77.61911142657,149.6270,0.0078,-0.0180,-0.0291,0.265234243,0.182613733,-0.000000000,INITIALIZING_BIASES*f00a6c6b
#INSPVAA,64,0,80.5,FINESTEERING,2008,323999.500,33554432,54e2,14307;2008,323999.500000000,39.14910416506,-77.61911142699,149.6269,0.0078,-0.0180,-0.0291,0.265234243,0.182613733,-0.000000000,INITIALIZING_BIASES*78ee1fa2
#INSPVAA,64,0,80.5,FINESTEERING,2008,323999.550,33554432,54e2,14307;2008,323999.550000000,39.14910416520,-77.61911142741,149.6269,0.0078,-0.0180,-0.0291,0.265234243,0.182613733,-0.000000000,INITIALIZING_BIASES*d6c06e02
#INSPVAA,64,0,80.5,FINESTEERING,2008,323999.600,33554432,54e2,14307;2008,323999.600000000,39.14910416534,-77.61911142782,149.6268,0.0078,-0.0180,-0.0291,0.265234243,0.182613733,-0.000000000,INITIALIZING_BIASES*1e8be965
#INSPVAA,64,0,80.5,FINESTEERING,2008,323999.650,33554432,54e2,14307;2008,323999.650000000,39.14910416492,-77.61911142657,149.6270,0.0078,-0.0180,-0.0291,0.265234243,0.182613733,-0.000000000,INITIALIZING_BIASES*b97e61c3
#INSPVAA,64,0,80.5,FINESTEERING,2008,323999.700,33554432,54e2,14307;2008,323999.700000000,39.14910416506,-77.61911142699,149.6269,0.0078,-0.0180,-0.0291,0.265234243,0.182613733,-0.000000000,INITIALIZING_BIASES*88578c1a
#INSPVAA,64,0,80.5,FINESTEERING,2008,323999.750,33554432,54e2,14307;2008,323999.750000000,39.14910416520,-77.61911142741,149.6269,0.0078,-0.0180,-0.0291,0.265234243,0.182613733,-0.000000000,INITIALIZING_BIASES*ee52f5c1
#INSPVAA,64,0,80.5,FINESTEERING,2008,323999.800,33554432,54e2,14307;2008,323999.800000000,39.14910416534,-77.61911142782,149.6268,0.0078,-0.0180,-0.0291,0.265234243,0.182613733,-0.000000000,INITIALIZING_BIASES*6ba35ff0
#INSPVAA,64,0,80.5,FINESTEERING,2008,323999.850,33554432,54e2,14307;2008,323999.850000000,39.14910416492,-77.61911142657,149.6270,0.0078,-0.0180,-0.0291,0.265234243,0.182613733,-0.000000000,INITIALIZING_BIASES*11a7a569
#INSPVAA,64,0,80.5,FINESTEERING,2008,323999.900,33554432,54e2,14307;2008,323999.900000000,39.14910416506,-77.61911142699,149.6269,0.0078,-0.0180,-0.0291,0.265234243,0.182613733,-0.000000000,INITIALIZING_BIASES*2d531429
#INSPVAA,64,0,80.5,FINESTEERING,2008,323999.950,33554432,54e2,14307;2008,323999.950000000,39.14910416520,-77.61911142741,149.6269,0.0078,-0.0180,-0.0291,0.265234243,0.182613733,-0.000000000,INITIALIZING_BIASES*266c5943
#INSPVAA,64,0,80.5,FINESTEERING,2008,324000.000,33554432,54e2,14307;2008,324000.000000000,39.14910416534,-77.61911142782,149.6268,0.0078,-0.0180,-0.0291,0.265234243,0.182613733,-0.000000000,INITIALIZING_BIASES*bcf14fcb
#INSPVAA,64,0,80.5,FINESTEERING,2008,324000.050,33554432,54e2,14307;2008,324000.050000000,39.14910420367,-77.61911134326,149.6426,0.0008,-0.0093,-0.0017,0.255892434,0.180010052,-0.000000000,INITIALIZING_BIASES*4c73aad6
#INSPVAA,64,0,81.5,FINESTEERING,2008,324000.100,33554432,54e2,14307;2008,324000.100000000,39.14910420369,-77.61911134348,149.6426,0.0008,-0.0093,-0.0017,0.255892434,0.180010052,-0.000000000,INITIALIZING_BIASES*0dc7b65e
#INSPVAA,64,0,81.5,FINESTEERING,2008,324000.150,33554432,54e2,14307;2008,324000.150000000,39.14910420370,-77.61911134369,149.6426,0.0008,-0.0093,-0.0017,0.255892434,0.180010052,-0.000000000,INITIALIZING_BIASES*8d7b834a
#INSPVAA,64,0,81.5,FINESTEERING,2008,324000.200,33554432,54e2,14307;2008,324000.200000000,39.14910420372,-77.61911134390,149.6426,0.0008,-0.0093,-0.0017,0.255892434,0.180010052,-0.000000000,INITIALIZING_BIASES*3a9b37d5
#INSPVAA,64,0,81.5,FINESTEERING,2008,324000.250,33554432,54e2,14307;2008,324000.250000000,39.14910420367,-77.61911134326,149.6426,0.0008,-0.0093,-0.0017,0.255892434,0.180010052,-0.000000000,INITIALIZING_BIASES*2336b3e0
#INSPVAA,64,0,81.5,FINESTEERING,2008,324000.300,33554432,54e2,14307;2008,324000.300000000,39.14910420369,-77.61911134348,149.6426,0.0008,-0.0093,-0.0017,0.255892434,0.180010052,-0.000000000,INITIALIZING_BIASES*82fbf6f5
#INSPVAA,64,0,81.5,FINESTEERING,2008,324000.350,33554432,54e2,14307;2008,324000.350000000,39.14910420370,-77.61911134369,149.6426,0.0008,-0.0093,-0.0017,0.255892434,0.180010052,-0.000000000,INITIALIZING_BIASES*2e66cc41
#INSPVAA,64,0,81.5,FINESTEERING,2008,324000.400,33554432,54e2,14307;2008,324000.400000000,39.14910420372,-77.61911134390,149.6426,0.0008,-0.0093,-0.0017,0.255892434,0.180010052,-0.000000000,INITIALIZING_BIASES*d02175be
#INSPVAA,64,0,81.5,FINESTEERING,2008,324000.450,33554432,54e2,14307;2008,324000.450000000,39.14910420367,-77.61911134326,149.6426,0.0008,-0.0093,-0.0017,0.255892434,0.180010052,-0.000000000,INITIALIZING_BIASES*bb95d6df
#INSPVAA,64,0,81.5,FINESTEERING,2008,324000.500,33554432,54e2,14307;2008,324000.500000000,39.14910420369,-77.61911134348,149.6426,0.0008,-0.0093,-0.0017,0.255892434,0.180010052,-0.000000000,INITIALIZING_BIASES*3d291117
#INSPVAA,64,0,81.5,FINESTEERING,2008,324000.550,33554432,54e2,14307;2008,324000.550000000,39.14910420370,-77.61911134369,149.6426,0.0008,-0.0093,-0.0017,0.255892434,0.180010052,-0.000000000,INITIALIZING_BIASES*3d9c0458
#INSPVAA,64,0,81.5,FINESTEERING,2008,324000.600,33554432,54e2,14307;2008,324000.600000000,39.14910420372,-77.61911134390,149.6426,0.0008,-0.0093,-0.0017,0.255892434,0.180010052,-0.000000000,INITIALIZING_BIASES*593a1176
#INSPVAA,64,0,81.5,FINESTEERING,2008,324000.650,33554432,54e2,14307;2008,324000.650000000,39.14910420367,-77.61911134326,149.6426,0.0008,-0.0093,-0.0017,0.255892434,0.180010052,-0.000000000,INITIALIZING_BIASES*4d92b5bd
#INSPVAA,64,0,81.5,FINESTEERING,2008,324000.700,33554432,54e2,14307;2008,324000.700000000,39.14910420369,-77.61911134348,149.6426,0.0008,-0.0093,-0.0017,0.255892434,0.180010052,-0.000000000,INITIALIZING_BIASES*5f605fc3
#INSPVAA,64,0,81.5,FINESTEERING,2008,324000.750,33554432,54e2,14307;2008,324000.750000000,39.14910420370,-77.61911134369,149.6426,0.0008,-0.0093,-0.0017,0.255892434,0.180010052,-0.000000000,INITIALIZING_BIASES*25c80f6c
#INSPVAA,64,0,81.5,FINESTEERING,2008,324000.800,33554432,54e2,14307;2008,324000.800000000,39.14910420372,-77.61911134390,149.6426,0.0008,-0.0093,-0.0017,0.255892434,0.180010052,-0.000000000,INITIALIZING_BIASES*c8e41815
#INSPVAA,64,0,81.5,FINESTEERING,2008,324000.850,33554432,54e2,14307;2008,324000.850000000,39.14910420367,-77.61911134326,149.6426,0.0008,-0.0093,-0.0017,0.255892434,0.180010052,-0.000000000,INITIALIZING_BIASES*983753ee
#INSPVAA,64,0,81.5,FINESTEERING,2008,324000.900,33554432,54e2,14307;2008,324000.900000000,39.14910420369,-77.61911134348,149.6426,0.0008,-0.0093,-0.0017,0.255892434,0.180010052,-0.000000000,INITIALIZING_BIASES*ad5910c4
#INSPVAA,64,0,81.5,FINESTEERING,2008,324000.950,33554432,54e2,14307;2008,324000.950000000,39.14910420370,-77.61911134369,149.6426,0.0008,-0.0093,-0.0017,0.255892434,0.180010052,-0.000000000,INITIALIZING_BIASES*33b5380b
#INSPVAA,64,0,81.5,FINESTEERING,2008,324001.000,33554432,54e2,14307;2008,324001.000000000,39.14910420372,-77.61911134391,149.6426,0.0008,-0.0093,-0.0017,0.255892434,0.180010052,-0.000000000,INITIALIZING_BIASES*e641748c
#INSPVAA,64,0,81.0,FINESTEERING,2008,324001.050,33554432,54e2,14307;2008,324001.050000000,39.14910421219,-77.61911128877,149.6504,0.0015,0.0043,0.0003,0.258765294,0.178824473,-0.000000000,INITIALIZING_BIASES*e57534e3
#INSPVAA,64,0,81.0,FINESTEERING,2008,324001.100,33554432,54e2,14307;2008,324001.100000000,39.14910421221,-77.61911128867,149.6504,0.0015,0.0043,0.0003,0.258765294,0.178824473,-0.000000000,INITIALIZING_BIASES*c84db490
#INSPVAA,64,0,81.0,FINESTEERING,2008,324001.150,33554432,54e2,14307;2008,324001.150000000,39.14910421224,-77.61911128857,149.6504,0.0015,0.0043,0.0003,0.258765294,0.178824473,-0.000000000,INITIALIZING_BIASES*be0cd000
#INSPVAA,64,0,81.0,FINESTEERING,2008,324001.200,33554432,54e2,14307;2008,324001.200000000,39.14910421227,-77.61911128847,149.6504,0.0015,0.0043,0.0003,0.258765294,0.178824473,-0.000000000,INITIALIZING_BIASES*68d0fccb
#INSPVAA,64,0,81.0,FINESTEERING,2008,324001.250,33554432,54e2,14307;2008,324001.250000000,39.14910421219,-77.61911128877,149.6504,0.0015,0.0043,0.0003,0.258765294,0.178824473,-0.000000000,INITIALIZING_BIASES*805634b1
#INSPVAA,64,0,81.0,FINESTEERING,2008,324001.300,33554432,54e2,14307;2008,324001.300000000,39.14910421221,-77.61911128867,149.6504,0.0015,0.0043,0.0003,0.258765294,0.178824473,-0.000000000,INITIALIZING_BIASES*4648e082
#INSPVAA,64,0,81.0,FINESTEERING,2008,324001.350,33554432,54e2,14307;2008,324001.350000000,39.14910421224,-77.61911128857,149.6504,0.0015,0.0043,0.0003,0.258765294,0.178824473,-0.000000000,INITIALIZING_BIASES*b35a868c
#INSPVAA,64,0,81.0,FINESTEERING,2008,324001.400,33554432,54e2,14307;2008,324001.400000000,39.14910421227,-77.61911128847,149.6504,0.0015,0.0043,0.0003,0.258765294,0.178824473,-0.000000000,INITIALIZING_BIASES*056caef4
#INSPVAA,64,0,81.0,FINESTEERING,2008,324001.450,33554432,54e2,14307;2008,324001.450000000,39.14910421219,-77.61911128877,149.6504,0.0015,0.0043,0.0003,0.258765294,0.178824473,-0.000000000,INITIALIZING_BIASES*92087daf
#INSPVAA,64,0,81.0,FINESTEERING,2008,324001.500,33554432,54e2,14307;2008,324001.500000000,39.14910421221,-77.61911128867,149.6504,0.0015,0.0043,0.0003,0.258765294,0.178824473,-0.000000000,INITIALIZING_BIASES*050d9cb2
#INSPVAA,64,0,81.0,FINESTEERING,2008,324001.550,33554432,54e2,14307;2008,324001.550000000,39.14910421224,-77.61911128857,149.6504,0.0015,0.0043,0.0003,0.258765294,0.178824473,-0.000000000,INITIALIZING_BIASES*c6820dad
#INSPVAA,64,0,81.0,FINESTEERING,2008,324001.600,33554432,54e2,14307;2008,324001.600000000,39.14910421227,-77.61911128847,149.6504,0.0015,0.0043,0.0003,0.258765294,0.178824473,-0.000000000,INITIALIZING_BIASES*ad01fa08
#INSPVAA,64,0,81.0,FINESTEERING,2008,324001.650,33554432,54e2,14307;2008,324001.650000000,39.14910421219,-77.61911128877,149.6504,0.0015,0.0043,0.0003,0.258765294,0.178824473,-0.000000000,INITIALIZING_BIASES*c9fbfe81
#INSPVAA,64,0,81.0,FINESTEERING,2008,324001.700,33554432,54e2,14307;2008,324001.700000000,39.14910421221,-77.61911128867,149.6504,0.0015,0.0043,0.0003,0.258765294,0.178824473,-0.000000000,INITIALIZING_BIASES*48c55a4d
#INSPVAA,64,0,81.0,FINESTEERING,2008,324001.750,33554432,54e2,14307;2008,324001.750000000,39.14910421224,-77.61911128857,149.6504,0.0015,0.0043,0.0003,0.258765294,0.178824473,-0.000000000,INITIALIZING_BIASES*b1f7da40
#INSPVAA,64,0,81.0,FINESTEERING,2008,324001.800,33554432,54e2,14307;2008,324001.800000000,39.14910421227,-77.61911128847,149.6504,0.0015,0.0043,0.0003,0.258765294,0.178824473,-0.000000000,INITIALIZING_BIASES*e61f0f35
#INSPVAA,64,0,81.0,FINESTEERING,2008,324001.850,33554432,54e2,14307;2008,324001.850000000,39.14910421219,-77.61911128877,149.6504,0.0015,0.0043,0.0003,0.258765294,0.178824473,-0.000000000,INITIALIZING_BIASES*9ceb5619
#INSPVAA,64,0,81.0,FINESTEERING,2008,324001.900,33554432,54e2,14307;2008,324001.900000000,39.14910421221,-77.61911128867,149.6504,0.0015,0.0043,0.0003,0.258765294,0.178824473,-0.000000000,INITIALIZING_BIASES*cea234e4
#INSPVAA,64,0,81.0,FINESTEERING,2008,324001.950,33554432,54e2,14307;2008,324001.950000000,39.14910421224,-77.61911128857,149.6504,0.0015,0.0043,0.0003,0.258765294,0.178824473,-0.000000000,INITIALIZING_BIASES*c799cc8d
#INSPVAA,64,0,81.0,FINESTEERING,2008,324002.000,33554432,54e2,14307;2008,324002.000000000,39.14910421227,-77.61911128847,149.6504,0.0015,0.0043,0.0003,0.258765294,0.178824473,-0.000000000,INITIALIZING_BIASES*9b404d75
#INSPVAA,64,0,81.0,FINESTEERING,2008,324002.050,33554432,54e2,14307;2008,324002.050000000,39.14910426063,-77.61911111994,149.6758,0.0302,-0.0196,-0.0118,0.260561337,0.186110806,-0.000000000,INITIALIZING_BIASES*09205cc5
#INSPVAA,64,0,81.5,FINESTEERING,2008,324002.100,33554432,54e2,14307;2008,324002.100000000,39.14910426117,-77.61911112039,149.6758,0.0302,-0.0196,-0.0118,0.260561337,0.186110806,-0.000000000,INITIALIZING_BIASES*af2e09e7
#INSPVAA,64,0,81.5,FINESTEERING,2008,324002.150,33554432,54e2,14307;2008,324002.150000000,39.14910426172,-77.61911112085,149.6758,0.0302,-0.0196,-0.0118,0.260561337,0.186110806,-0.000000000,INITIALIZING_BIASES*8d816ac9
#INSPVAA,64,0,81.5,FINESTEERING,2008,324002.200,33554432,54e2,14307;2008,324002.200000000,39.14910426226,-77.61911112130,149.6757,0.0302,-0.0196,-0.0118,0.260561337,0.186110806,-0.000000000,INITIALIZING_BIASES*9cc8e823
#INSPVAA,64,0,81.5,FINESTEERING,2008,324002.250,33554432,54e2,14307;2008,324002.250000000,39.14910426063,-77.61911111994,149.6758,0.0302,-0.0196,-0.0118,0.260561337,0.186110806,-0.000000000,INITIALIZING_BIASES*255a2c7b
#INSPVAA,64,0,81.5,FINESTEERING,2008,324002.300,33554432,54e2,14307;2008,324002.300000000,39.14910426117,-77.61911112039,149.6758,0.0302,-0.0196,-0.0118,0.260561337,0.186110806,-0.000000000,INITIALIZING_BIASES*821e1966
#INSPVAA,64,0,81.5,FINESTEERING,2008,324002.350,33554432,54e2,14307;2008,324002.350000000,39.14910426172,-77.61911112085,149.6758,0.0302,-0.0196,-0.0118,0.260561337,0.186110806,-0.000000000,INITIALIZING_BIASES*23984b37
#INSPVAA,64,0,81.5,FINESTEERING,2008,324002.400,33554432,54e2,14307;2008,324002.400000000,39.14910426226,-77.61911112130,149.6757,0.0302,-0.0196,-0.0118,0.260561337,0.186110806,-0.000000000,INITIALIZING_BIASES*7e9bf2e4
#INSPVAA,64,0,81.5,FINESTEERING,2008,324002.450,33554432,54e2,14307;2008,324002.450000000,39.14910426063,-77.61911111994,149.6758,0.0302,-0.0196,-0.0118,0.260561337,0.186110806,-0.000000000,INITIALIZING_BIASES*66069909
#INSPVAA,64,0,81.5,FINESTEERING,2008,324002.500,33554432,54e2,14307;2008,324002.500000000,39.14910426117,-77.61911112039,149.6758,0.0302,-0.0196,-0.0118,0.260561337,0.186110806,-0.000000000,INITIALIZING_BIASES*3cc5f778
#INSPVAA,64,0,81.5,FINESTEERING,2008,324002.550,33554432,54e2,14307;2008,324002.550000000,39.14910426172,-77.61911112085,149.6758,0.0302,-0.0196,-0.0118,0.260561337,0.186110806,-0.000000000,INITIALIZING_BIASES*5090a5fe
#INSPVAA,64,0,81.5,FINESTEERING,2008,324002.600,33554432,54e2,14307;2008,324002.600000000,39.14910426226,-77.61911112130,149.6757,0.0302,-0.0196,-0.0118,0.260561337,0.186110806,-0.000000000,INITIALIZING_BIASES*321a6ce5
#INSPVAA,64,0,81.5,FINESTEERING,2008,324002.650,33554432,54e2,14307;2008,324002.650000000,39.14910426063,-77.61911111994,149.6758,0.0302,-0.0196,-0.0118,0.260561337,0.186110806,-0.000000000,INITIALIZING_BIASES*4b33b094
#INSPVAA,64,0,81.5,FINESTEERING,2008,324002.700,33554432,54e2,14307;2008,324002.700000000,39.14910426118,-77.61911112039,149.6758,0.0302,-0.0196,-0.0118,0.260561337,0.186110806,-0.000000000,INITIALIZING_BIASES*6000ab7c
#INSPVAA,64,0,81.5,FINESTEERING,2008,324002.750,33554432,54e2,14307;2008,324002.750000000,39.14910426172,-77.61911112085,149.6758,0.0302,-0.0196,-0.0118,0.260561337,0.186110806,-0.000000000,INITIALIZING_BIASES*bee8b800
#INSPVAA,64,0,81.5,FINESTEERING,2008,324002.800,33554432,54e2,14307;2008,324002.800000000,39.14910426226,-77.61911112130,149.6757,0.0302,-0.0196,-0.0118,0.260561337,0.186110806,-0.000000000,INITIALIZING_BIASES*ffc99279
#INSPVAA,64,0,81.5,FINESTEERING,2008,324002.850,33554432,54e2,14307;2008,324002.850000000,39.14910426063,-77.61911111994,149.6758,0.0302,-0.0196,-0.0118,0.260561337,0.186110806,-0.000000000,INITIALIZING_BIASES*745c9126
#INSPVAA,64,0,81.5,FINESTEERING,2008,324002.900,33554432,54e2,14307;2008,324002.900000000,39.14910426118,-77.61911112039,149.6758,0.0302,-0.0196,-0.0118,0.260561337,0.186110806,-0.000000000,INITIALIZING_BIASES*1f37a4b0
#INSPVAA,64,0,81.5,FINESTEERING,2008,324002.950,33554432,54e2,14307;2008,324002.950000000,39.14910426172,-77.61911112085,149.6758,0.0302,-0.0196,-0.0118,0.260561337,0.186110806,-0.000000000,INITIALIZING_BIASES*fd556199
#INSPVAA,64,0,81.5,FINESTEERING,2008,324003.000,33554432,54e2,14307;2008,324003.000000000,39.14910426226,-77.61911112130,149.6757,0.0302,-0.0196,-0.0118,0.260561337,0.186110806,-0.000000000,INITIALIZING_BIASES*ff7a5dee
#INSPVAA,64,0,81.0,FINESTEERING,2008,324003.050,33554432,54e2,14307;2008,324003.050000000,39.14910427403,-77.61911105607,149.6954,0.0234,-0.0097,-0.0012,0.264525523,0.187014868,-0.000000000,INITIALIZING_BIASES*a29cd64c
#INSPVAA,64,0,81.0,FINESTEERING,2008,324003.100,33554432,54e2,14307;2008,324003.100000000,39.14910427445,-77.61911105629,149.6954,0.0234,-0.0097,-0.0012,0.264525523,0.187014868,-0.000000000,INITIALIZING_BIASES*1966ed88
#INSPVAA,64,0,81.0,FINESTEERING,2008,324003.150,33554432,54e2,14307;2008,324003.150000000,39.14910427487,-77.61911105652,149.6954,0.0234,-0.0097,-0.0012,0.264525523,0.187014868,-0.000000000,INITIALIZING_BIASES*11682510
#INSPVAA,64,0,81.0,FINESTEERING,2008,324003.200,33554432,54e2,14307;2008,324003.200000000,39.14910427529,-77.61911105674,149.6954,0.0234,-0.0097,-0.0012,0.264525523,0.187014868,-0.000000000,INITIALIZING_BIASES*9757d4b7
#INSPVAA,64,0,81.0,FINESTEERING,2008,324003.250,33554432,54e2,14307;2008,324003.250000000,39.14910427403,-77.61911105607,149.6954,0.0234,-0.0097,-0.0012,0.264525523,0.187014868,-0.000000000,INITIALIZING_BIASES*57cc887f
#INSPVAA,64,0,81.0,FINESTEERING,2008,324003.300,33554432,54e2,14307;2008,324003.300000000,39.14910427445,-77.61911105629,149.6954,0.0234,-0.0097,-0.0012,0.264525523,0.187014868,-0.000000000,INITIALIZING_BIASES*4c819e06
#INSPVAA,64,0,81.0,FINESTEERING,2008,324003.350,33554432,54e2,14307;2008,324003.350000000,39.14910427487,-77.61911105652,149.6954,0.0234,-0.0097,-0.0012,0.264525523,0.187014868,-0.000000000,INITIALIZING_BIASES*a0d92274
#INSPVAA,64,0,81.0,FINESTEERING,2008,324003.400,33554432,54e2,14307;2008,324003.400000000,39.14910427529,-77.61911105674,149.6954,0.0234,-0.0097,-0.0012,0.264525523,0.187014868,-0.000000000,INITIALIZING_BIASES*d3d2a35c
#INSPVAA,64,0,81.0,FINESTEERING,2008,324003.450,33554432,54e2,14307;2008,324003.450000000,39.14910427403,-77.61911105607,149.6954,0.0234,-0.0097,-0.0012,0.264525523,0.187014868,-0.000000000,INITIALIZING_BIASES*8274c01e
#INSPVAA,64,0,81.0,FINESTEERING,2008,324003.500,33554432,54e2,14307;2008,324003.500000000,39.14910427445,-77.61911105629,149.6954,0.0234,-0.0097,-0.0012,0.264525523,0.187014868,-0.000000000,INITIALIZING_BIASES*99902833
#INSPVAA,64,0,81.0,FINESTEERING,2008,324003.550,33554432,54e2,14307;2008,324003.550000000,39.14910427487,-77.61911105652,149.6954,0.0234,-0.0097,-0.0012,0.264525523,0.187014868,-0.000000000,INITIALIZING_BIASES*bc896d9b
#INSPVAA,64,0,81.0,FINESTEERING,2008,324003.600,33554432,54e2,14307;2008,324003.600000000,39.14910427529,-77.61911105674,149.6954,0.0234,-0.0097,-0.0012,0.264525523,0.187014868,-0.000000000,INITIALIZING_BIASES*085b41dc
#INSPVAA,64,0,81.0,FINESTEERING,2008,324003.650,33554432,54e2,14307;2008,324003.650000000,39.14910427403,-77.61911105607,149.6954,0.0234,-0.0097,-0.0012,0.264525523,0.187014868,-0.000000000,INITIALIZING_BIASES*6e1f280a
#INSPVAA,64,0,81.0,FINESTEERING,2008,324003.700,33554432,54e2,14307;2008,324003.700000000,39.14910427445,-77.61911105629,149.6954,0.0234,-0.0097,-0.0012,0.264525523,0.187014868,-0.000000000,INITIALIZING_BIASES*410eec54
#INSPVAA,64,0,81.0,FINESTEERING,2008,324003.750,33554432,54e2,14307;2008,324003.750000000,39.14910427487,-77.61911105652,149.6954,0.0234,-0.0097,-0.0012,0.264525523,0.187014868,-0.000000000,INITIALIZING_BIASES*64570b4d
#INSPVAA,64,0,81.0,FINESTEERING,2008,324003.800,33554432,54e2,14307;2008,324003.800000000,39.14910427529,-77.61911105674,149.6954,0.0234,-0.0097,-0.0012,0.264525523,0.187014868,-0.000000000,INITIALIZING_BIASES*eabbedaa
#INSPVAA,64,0,81.0,FINESTEERING,2008,324003.850,33554432,54e2,14307;2008,324003.850000000,39.14910427403,-77.61911105607,149.6954,0.0234,-0.0097,-0.0012,0.264525523,0.187014868,-0.000000000,INITIALIZING_BIASES*edd3f558
#INSPVAA,64,0,81.0,FINESTEERING,2008,324003.900,33554432,54e2,14307;2008,324003.900000000,39.14910427445,-77.61911105629,149.6954,0.0234,-0.0097,-0.0012,0.264525523,0.187014868,-0.000000000,INITIALIZING_BIASES*3b86dafb
#INSPVAA,64,0,81.0,FINESTEERING,2008,324003.950,33554432,54e2,14307;2008,324003.950000000,39.14910427487,-77.61911105652,149.6954,0.0234,-0.0097,-0.0012,0.264525523,0.187014868,-0.000000000,INITIALIZING_BIASES*74b6141f
#INSPVAA,64,0,81.0,FINESTEERING,2008,324004.000,33554432,54e2,14307;2008,324004.000000000,39.14910427529,-77.61911105674,149.6954,0.0234,-0.0097,-0.0012,0.264525523,0.187014868,-0.000000000,INITIALIZING_BIASES*47d9c1dc
#INSPVAA,64,0,81.0,FINESTEERING,2008,324004.050,33554432,54e2,14307;2008,324004.050000000,39.14910433953,-77.61911107130,149.6791,-0.0131,-0.0166,-0.0794,0.259686178,0.180697017,-0.000000000,INITIALIZING_BIASES*9c16fb13
#INSPVAA,64,0,82.0,FINESTEERING,2008,324004.100,33554432,54e2,14307;2008,324004.100000000,39.14910433929,-77.61911107169,149.6789,-0.0131,-0.0166,-0.0794,0.259686178,0.180697017,-0.000000000,INITIALIZING_BIASES*a19cfb31
#INSPVAA,64,0,82.0,FINESTEERING,2008,324004.150,33554432,54e2,14307;2008,324004.150000000,39.14910433905,-77.61911107207,149.6788,-0.0131,-0.0166,-0.0794,0.259686178,0.180697017,-0.000000000,INITIALIZING_BIASES*271511b9
#INSPVAA,64,0,82.0,FINESTEERING,2008,324004.200,33554432,54e2,14307;2008,324004.200000000,39.14910433882,-77.61911107246,149.6786,-0.0131,-0.0166,-0.0794,0.259686178,0.180697017,-0.000000000,INITIALIZING_BIASES*39ae2e25
#INSPVAA,64,0,82.0,FINESTEERING,2008,324004.250,33554432,54e2,14307;2008,324004.250000000,39.14910433953,-77.61911107131,149.6791,-0.0131,-0.0166,-0.0794,0.259686178,0.180697017,-0.000000000,INITIALIZING_BIASES*23951f9c
#INSPVAA,64,0,82.0,FINESTEERING,2008,324004.300,33554432,54e2,14307;2008,324004.300000000,39.14910433929,-77.61911107169,149.6789,-0.0131,-0.0166,-0.0794,0.259686178,0.180697017,-0.000000000,INITIALIZING_BIASES*7d87035b
#INSPVAA,64,0,82.0,FINESTEERING,2008,324004.350,33554432,54e2,14307;2008,324004.350000000,39.14910433905,-77.61911107207,149.6788,-0.0131,-0.0166,-0.0794,0.259686178,0.180697017,-0.000000000,INITIALIZING_BIASES*c3e2df55
#INSPVAA,64,0,82.0,FINESTEERING,2008,324004.400,33554432,54e2,14307;2008,324004.400000000,39.14910433882,-77.61911107246,149.6786,-0.0131,-0.0166,-0.0794,0.259686178,0.180697017,-0.000000000,INITIALIZING_BIASES*83d3b11a
#INSPVAA,64,0,82.0,FINESTEERING,2008,324004.450,33554432,54e2,14307;2008,324004.450000000,39.14910433953,-77.61911107131,149.6791,-0.0131,-0.0166,-0.0794,0.259686178,0.180697017,-0.000000000,INITIALIZING_BIASES*1e9ada87
#INSPVAA,64,0,82.0,FINESTEERING,2008,324004.500,33554432,54e2,14307;2008,324004.500000000,39.14910433929,-77.61911107169,149.6789,-0.0131,-0.0166,-0.0794,0.259686178,0.180697017,-0.000000000,INITIALIZING_BIASES*d6a8a70b
#INSPVAA,64,0,82.0,FINESTEERING,2008,324004.550,33554432,54e2,14307;2008,324004.550000000,39.14910433905,-77.61911107207,149.6788,-0.0131,-0.0166,-0.0794,0.259686178,0.180697017,-0.000000000,INITIALIZING_BIASES*0075c397
#INSPVAA,64,0,82.0,FINESTEERING,2008,324004.600,33554432,54e2,14307;2008,324004.600000000,39.14910433882,-77.61911107246,149.6786,-0.0131,-0.0166,-0.0794,0.259686178,0.180697017,-0.000000000,INITIALIZING_BIASES*919dd775
#INSPVAA,64,0,82.0,FINESTEERING,2008,324004.650,33554432,54e2,14307;2008,324004.650000000,39.14910433953,-77.61911107131,149.6791,-0.0131,-0.0166,-0.0794,0.259686178,0.180697017,-0.000000000,INITIALIZING_BIASES*1f79fa48
#INSPVAA,64,0,82.0,FINESTEERING,2008,324004.700,33554432,54e2,14307;2008,324004.700000000,39.14910433929,-77.61911107169,149.6789,-0.0131,-0.0166,-0.0794,0.259686178,0.180697017,-0.000000000,INITIALIZING_BIASES*d35ea90e
#INSPVAA,64,0,82.0,FINESTEERING,2008,324004.750,33554432,54e2,14307;2008,324004.750000000,39.14910433905,-77.61911107207,149.6788,-0.0131,-0.0166,-0.0794,0.259686178,0.180697017,-0.000000000,INITIALIZING_BIASES*38950989
#INSPVAA,64,0,82.0,FINESTEERING,2008,324004.800,33554432,54e2,14307;2008,324004.800000000,39.14910433882,-77.61911107246,149.6786,-0.0131,-0.0166,-0.0794,0.259686178,0.180697017,-0.000000000,INITIALIZING_BIASES*933c7ddb
#INSPVAA,64,0,82.0,FINESTEERING,2008,324004.850,33554432,54e2,14307;2008,324004.850000000,39.14910433953,-77.61911107131,149.6791,-0.0131,-0.0166,-0.0794,0.259686178,0.180697017,-0.000000000,INITIALIZING_BIASES*43d27abd
#INSPVAA,64,0,82.0,FINESTEERING,2008,324004.900,33554432,54e2,14307;2008,324004.900000000,39.14910433929,-77.61911107169,149.6789,-0.0131,-0.0166,-0.0794,0.259686178,0.180697017,-0.000000000,INITIALIZING_BIASES*0c375d91
#INSPVAA,64,0,82.0,FINESTEERING,2008,324004.950,33554432,54e2,14307;2008,324004.950000000,39.14910433905,-77.61911107207,149.6788,-0.0131,-0.0166,-0.0794,0.259686178,0.180697017,-0.000000000,INITIALIZING_BIASES*70319d0e
